~VERSION INFORMATION
 VERS.                 2.0:   CWLS LOG ASCII STANDARD -VERSION 2.0
 WRAP.                  NO:   ONE LINE PER DEPTH STEP
~WELL INFORMATION BLOCK
#MNEM.UNIT           DATA                    DESCRIPTION OF MNEMONIC
#---------    -------------------            -------------------------------
# Generated from Intellog Unique Number	CW_76_78/WELL/2562
WELL.         BARNWELL ET AL MCMULLEN        : Well_name    - WELL
LOC .         00/01-10-078-26W4/0            : Location     - LOCATION
UWI .         00/01-10-078-26W4/0            : Uwi          - UNIQUE WELL ID
ENTR.         MAX                            : Entered      - ENTERED BY
SRVC.         COMPUTALOG                     : Scn          - SERVICE COMPANY
STRT.M        320                            : top_depth    - START DEPTH
STOP.M        560                            : bot_depth    - STOP DEPTH
STEP.M        0.25                           : increment    - STEP LENGTH
 NULL. -999.2500:NULL Value
~CURVE INFORMATION BLOCK
#MNEM UNIT       ERCB CURVE CODE    CURVE DESCRIPTION
#-----------   ------------------   ----------------------------------
DEPT.M        00 001 00 00         : DEPTH        - DEPTH
GR  .API      00 310 00 00         : GR           - GAMMA RAY
ILD .OHMM     00 120 00 00         : RESD         - DEEP RESISTIVITY (DIL)
NPHI.V/V      00 330 00 00         : PHIN         - NEUTRON POROSITY (SANDSTONE)
DPHI.V/V      00 890 00 00         : PHID         - DENSITY POROSITY (SANDSTONE)
CALI.MM       00 280 01 00         : CAL          - CALIPER
~PARAMETER INFORMATION
#MNEM.UNIT           DATA             DESCRIPTION OF MNEMONIC
#---------         -----------     ------------------------------
GL  .M        610.3                : gl           - GROUND LEVEL ELEVATION
EREF.M        613.8                : kb           - ELEVATION OF DEPTH REFERENCE
DATM.M        610.3                : datum        - DATUM ELEVATION
TDD .M        561                  : tdd          - TOTAL DEPTH DRILLER
RUN .         ONE                  : Run          - RUN NUMBER
ENG .         BILL                 : Engineer     - RECORDING ENGINEER
WIT .         JIM                  : Witness      - WITNESSED BY
MUD .         GEL                  : Mud_type     - MUD TYPE
MATR.         SANDSTONE            : Logunit      - NEUTRON MATRIX
TMAX.C        26                   : BHT          - MAXIMUM RECORDED TEMPERATURE
BHTD.M        561                  : BHTDEP       - MAXIMUM RECORDED TEMPERATURE
RMT .C        21                   : MDTP         - TEMPERATURE OF MUD
MUDD.KG/M     1160                 : MWT          - MUD DENSITY
NEUT.         1                    : NEUTRON      - NEUTRON TYPE
RESI.         0                    : RESIST       - RESISTIVITY TYPE
RM  .OHMM     3.7                  : RM           - RESISTIVITY OF MUD
RMC .OHMM     2.4                  : RMC          - RESISTIVITY OF MUD CAKE
RMF .OHMM     3.5                  : RMF          - RESISTIVITY OF MUD FILTRATE
SUFT.C        -10                  : SUFT         - SURFACE TEMPERATURE
~A  DEPTH       GR     RESD     PHIN     PHID      CAL
# ...
  539.000   92.279    8.900    0.322    0.206  172.510
  539.250  100.760    8.649    0.361    0.208  172.977
  539.500  108.634    8.563    0.430    0.230  173.456
  539.750  114.382    8.639    0.462    0.244  172.911
  540.000   96.446    8.964    0.440    0.260  168.827
  540.250   76.379    9.746    0.393    0.260  163.732
  540.500   62.391   10.495    0.294    0.235  160.660
  540.750   61.155   11.095    0.280    0.235  160.625
  541.000   68.115   11.729    0.297    0.245  161.092
  541.250   79.939   12.170    0.298    0.244  161.061
  541.500   89.938   11.607    0.326    0.249  161.000
  541.750   92.344   10.968    0.328    0.261  160.987
  542.000   90.805   10.267    0.337    0.261  160.987
  542.250   90.805    9.701    0.364    0.263  160.912
  542.500   90.153    9.428    0.380    0.277  161.881
  542.750   90.132    9.336    0.390    0.287  161.881
  543.000   91.634    9.071    0.398    0.291  162.326
  543.250   95.862    8.817    0.415    0.296  162.291
  543.500  104.649    8.100    0.430    0.299  162.757
  543.750  117.381    7.442    0.453    0.350  164.236
  544.000  116.446    7.098    0.503    0.407  164.716
  544.250  115.208    6.834    0.543    0.385  165.183
  544.500  113.975    6.642    0.516    0.341  165.152
  544.750  110.912    6.637    0.449    0.272  165.152
  545.000  112.716    6.571    0.425    0.247  165.078
  545.250  116.339    6.508    0.403    0.273  166.050
  545.500  122.089    6.508    0.460    0.291  167.032
  545.750  123.280    6.500    0.500    0.296  168.515
  546.000  124.780    6.497    0.523    0.316  170.496
  546.250  129.010    6.678    0.527    0.323  169.449
  546.500  133.848    6.928    0.517    0.182  169.418
  546.750  126.840    7.461    0.492    0.142  170.892
  547.000  102.221    7.963    0.442    0.119  172.380
  547.250   99.468    8.339    0.366    0.128  173.357
  547.500  115.540    8.180    0.343    0.218  172.820
  547.750  134.044    7.446    0.388    0.203  172.275
  548.000  137.661    6.777    0.411    0.188  172.750
  548.250  137.946    6.836    0.433    0.182  173.217
  548.500  130.941    6.836    0.429    0.183  172.676
  548.750  126.366    7.023    0.416    0.180  171.123
  549.000  125.434    7.495    0.392    0.168  170.071
  549.250  124.198    8.149    0.373    0.154  170.036
  549.500  116.887    8.858    0.367    0.139  170.001
  549.750  105.935    9.020    0.351    0.137  170.978
  550.000  105.003    8.766    0.339    0.165  171.445
  550.250  112.568    8.519    0.325    0.188  171.406
  550.500  120.748    8.435    0.363    0.203  171.379
  550.750  122.546    8.671    0.413    0.216  172.356
  551.000  123.132    9.338    0.406    0.215  171.305
  551.250  121.897   10.345    0.426    0.229  170.253
  551.500  114.282   13.687    0.416    0.205  170.716
  551.750  107.890   15.592    0.362    0.174  173.220
  552.000   89.951   21.616    0.201    0.128  174.707
  552.250   79.905   27.550    0.179    0.053  173.656
  552.500   71.685   33.505    0.158    0.020  171.597
  552.750   69.238   31.366    0.139    0.012  168.525
  553.000   71.342   25.048    0.128    0.004  167.474
  553.250   84.679   19.268    0.147    0.014  168.451
  553.500  107.130   12.882    0.190    0.053  169.432
  553.750  118.040   10.002    0.285    0.138  170.911
  554.000  124.396    9.105    0.323    0.182  172.896
  554.250  125.885    8.287    0.335    0.204  173.376
  554.500  125.872    8.287    0.357    0.252  172.324
  554.750  126.458    8.123    0.418    0.260  169.755
  555.000  129.469    8.196    0.358    0.230  169.218
  555.250  130.665    8.504    0.322    0.205  170.195
  555.500  132.466    9.075    0.318    0.176  171.163
  555.750  136.395   10.531    0.311    0.184  171.133
  556.000  136.067   11.030    0.289    0.174  169.579
  556.250  129.060   11.128    0.274    0.160  167.511
  556.500  126.306   10.515    0.268    0.138  167.485
  556.750  127.199    8.881    0.293    0.104  168.458
  557.000  129.911    8.084    0.314    0.142  168.419
  557.250  136.266    8.084    0.308    0.188  168.388
  557.500  134.418    7.633    0.310    0.274  169.365
  557.750  134.096    7.489    0.329    0.267  169.827
  558.000  134.379    7.697    0.329    0.251  169.291
  558.250  134.355    7.986    0.329    0.221  169.260
  558.500  135.245    8.133    0.328    0.195  168.719
  558.750  136.137    8.128    0.317    0.191  168.684
  559.000  132.473    7.825    0.322    0.176  168.649
  559.250  130.324    7.749    0.329    0.171  167.083
  559.500  129.695    7.817    0.325    0.168  166.040
  559.750  130.282    8.034    0.318    0.205  164.997
  560.000  130.258    8.105    0.309    0.245  164.962
