~VERSION INFORMATION
 VERS.                 2.0:   CWLS LOG ASCII STANDARD -VERSION 2.0
 WRAP.                  NO:   ONE LINE PER DEPTH STEP
~WELL INFORMATION BLOCK
#MNEM.UNIT           DATA                    DESCRIPTION OF MNEMONIC
#---------    -------------------            -------------------------------
# Generated from Intellog Unique Number	CX_WELLS/WELL/2743
WELL.         THORNBURY                      : Well_name    - WELL
LOC .         00/01-09-080-13W4/0            : Location     - LOCATION
UWI .         00/01-09-080-13W4/0            : Uwi          - UNIQUE WELL ID
ENTR.         T                              : Entered      - ENTERED BY
SRVC.         SCHLUMBERGER                   : Scn          - SERVICE COMPANY
STRT.M        270                            : top_depth    - START DEPTH
STOP.M        500                            : bot_depth    - STOP DEPTH
STEP.M        0.25                           : increment    - STEP LENGTH
 NULL. -999.2500:NULL Value
~CURVE INFORMATION BLOCK
#MNEM UNIT       ERCB CURVE CODE    CURVE DESCRIPTION
#-----------   ------------------   ----------------------------------
DEPT.M        00 001 00 00         : DEPTH        - DEPTH
GR  .API      00 310 00 00         : GR           - GAMMA RAY
NPHI.V/V      00 330 00 00         : PHIN         - NEUTRON POROSITY (SANDSTONE)
DPHI.V/V      00 890 00 00         : PHID         - DENSITY POROSITY (SANDSTONE)
ILD .OHMM     00 120 00 00         : RESD         - DEEP RESISTIVITY (DLL)
~PARAMETER INFORMATION
#MNEM.UNIT           DATA             DESCRIPTION OF MNEMONIC
#---------         -----------     ------------------------------
GL  .M        681.9                : gl           - GROUND LEVEL ELEVATION
EREF.M        685.9                : kb           - ELEVATION OF DEPTH REFERENCE
DATM.M        685.9                : datum        - DATUM ELEVATION
TDD .M        504                  : tdd          - TOTAL DEPTH DRILLER
RUN .         ONE                  : Run          - RUN NUMBER
ENG .         BILL                 : Engineer     - RECORDING ENGINEER
WIT .         JIM                  : Witness      - WITNESSED BY
MUD .         GEL                  : Mud_type     - MUD TYPE
MATR.         SANDSTONE            : Logunit      - NEUTRON MATRIX
TMAX.C        30                   : BHT          - MAXIMUM RECORDED TEMPERATURE
BHTD.M        504                  : BHTDEP       - MAXIMUM RECORDED TEMPERATURE
MATR.         1                    : LOGUNIT      - NEUTRON MATRIX
RMT .C        20                   : MDTP         - TEMPERATURE OF MUD
NEUT.         1                    : NEUTRON      - NEUTRON TYPE
RESI.         3.5                  : RESIST       - RESISTIVITY TYPE
RMC .OHMM     2.3                  : RMC          - RESISTIVITY OF MUD CAKE
RMF .OHMM     4.5                  : RMF          - RESISTIVITY OF MUD FILTRATE
SUFT.C        4                    : SUFT         - SURFACE TEMPERATURE
~A  DEPTH       GR     PHIN     PHID     RESD
# ...
  313.500  100.260    0.436    0.219    9.827
  313.750  101.542    0.448    0.212    9.848
  314.000  101.588    0.455    0.202   10.062
  314.250  102.252    0.463    0.211   10.270
  314.500  102.314    0.448    0.219   10.482
  314.750   99.967    0.438    0.209   10.914
  315.000   99.442    0.433    0.214   11.146
  315.250  100.106    0.427    0.240   11.599
  315.500   97.759    0.428    0.253   11.630
  315.750   96.014    0.426    0.251   11.437
  316.000   96.678    0.418    0.246   11.242
  316.250   97.945    0.424    0.246   10.447
  316.500  100.432    0.431    0.254    9.714
  316.750  102.903    0.425    0.263    9.548
  317.000  105.961    0.412    0.273    9.395
  317.250  110.239    0.412    0.284    9.782
  317.500  104.880    0.410    0.291   10.168
  317.750  101.328    0.413    0.300   10.795
  318.000   98.996    0.435    0.300   11.233
  318.250   99.058    0.428    0.291   11.251
  318.500   99.120    0.415    0.289   10.870
  318.750  100.989    0.410    0.286   10.881
  319.000  102.256    0.410    0.272   10.701
  319.250   99.291    0.407    0.260   10.327
  319.500   94.550    0.401    0.247    9.785
  319.750   97.623    0.393    0.228    9.438
  320.000  100.697    0.392    0.218    8.948
  320.250  103.770    0.405    0.213    8.790
  320.500  102.025    0.421    0.223    8.976
  320.750   95.462    0.432    0.235    9.700
  321.000   87.694    0.431    0.263   11.968
  321.250   77.502    0.436    0.286   13.953
  321.500   53.456    0.440    0.320   15.365
  321.750   45.688    0.423    0.348   16.604
  322.000   47.573    0.427    0.345   17.953
  322.250   49.442    0.424    0.341   18.324
  322.500   49.504    0.418    0.340   19.079
  322.750   50.183    0.406    0.339   19.109
  323.000   52.654    0.404    0.341   19.525
  323.250   53.921    0.404    0.344   19.567
  323.500   52.778    0.404    0.344   19.608
  323.750   50.431    0.403    0.343   19.650
  324.000   50.493    0.404    0.342   19.692
  324.250   49.366    0.405    0.339   19.355
  324.500   46.401    0.407    0.338   19.418
  324.750   43.452    0.411    0.338   19.449
  325.000   44.703    0.412    0.338   19.521
  325.250   51.405    0.413    0.337   19.188
  325.500   52.085    0.407    0.341   19.218
  325.750   49.135    0.412    0.344   19.249
  326.000   46.788    0.420    0.336   18.950
  326.250   46.232    0.430    0.330   18.616
  326.500   50.526    0.430    0.332   18.666
  326.750   52.395    0.420    0.331   18.695
  327.000   50.634    0.417    0.328   18.745
  327.250   48.287    0.425    0.326   18.776
  327.500   48.349    0.435    0.327   18.816
  327.750   47.222    0.430    0.334   18.514
  328.000   48.488    0.422    0.339   18.553
  328.250   53.369    0.418    0.344   18.947
  328.500   54.651    0.416    0.342   19.007
  328.750   52.906    0.412    0.331   19.038
  329.000   48.752    0.411    0.331   18.712
  329.250   48.196    0.407    0.330   18.402
  329.500   50.065    0.405    0.327   18.126
  329.750   54.374    0.405    0.328   18.145
  330.000   55.640    0.418    0.335   17.835
  330.250   56.304    0.432    0.343   17.892
  330.500   56.953    0.425    0.340   17.920
  330.750   57.015    0.422    0.334   17.949
  331.000   55.873    0.417    0.326   17.997
  331.250   52.938    0.414    0.314   18.729
  331.500   52.985    0.409    0.258   19.861
  331.750   50.638    0.403    0.210   21.462
  332.000   42.268    0.330    0.227   22.346
  332.250   42.947    0.361    0.299   21.163
  332.500   45.403    0.393    0.323   20.412
  332.750   49.696    0.413    0.346   19.341
  333.000   50.978    0.416    0.344   18.655
  333.250   50.438    0.412    0.344   18.013
  333.500   50.500    0.412    0.344   17.383
  333.750   50.562    0.436    0.343   17.095
  334.000   51.226    0.437    0.342   17.132
  334.250   51.875    0.463    0.338   17.159
  334.500   52.539    0.457    0.336   17.196
  334.750   53.203    0.444    0.337   16.911
  335.000   55.103    0.420    0.338   16.956
  335.250   53.961    0.409    0.339   16.683
  335.500   50.393    0.417    0.339   16.728
  335.750   45.637    0.437    0.339   16.755
  336.000   47.506    0.450    0.339   16.486
  336.250   50.008    0.457    0.338   16.503
  336.500   50.039    0.468    0.340   16.539
  336.750   51.306    0.466    0.344   16.583
  337.000   51.970    0.434    0.346   16.627
  337.250   50.843    0.430    0.345   16.654
  337.500   50.889    0.431    0.337   16.698
  337.750   50.951    0.427    0.327   16.725
  338.000   51.646    0.418    0.322   16.752
  338.250   51.708    0.405    0.322   16.797
  338.500   52.372    0.412    0.327   17.162
  338.750   53.068    0.425    0.329   17.189
  339.000   53.114    0.434    0.336   17.244
  339.250   53.145    0.426    0.340   17.263
  339.500   50.798    0.416    0.343   17.300
  339.750   48.451    0.423    0.340   17.337
  340.000   48.513    0.434    0.336   17.374
  340.250   49.795    0.439    0.339   17.420
  340.500   51.061    0.436    0.337   17.457
  340.750   51.725    0.431    0.332   17.495
  341.000   51.787    0.433    0.330   17.523
  341.250   54.258    0.435    0.331   17.569
  341.500   56.730    0.426    0.330   17.952
  341.750   57.394    0.422    0.330   17.980
  342.000   57.471    0.428    0.328   18.028
  342.250   57.533    0.434    0.328   18.067
  342.500   58.197    0.432    0.328   18.115
  342.750   58.862    0.420    0.328   18.144
  343.000   60.746    0.415    0.323   18.183
  343.250   62.013    0.408    0.317   18.222
  343.500   63.881    0.414    0.312   17.920
  343.750   64.546    0.424    0.306   17.958
  344.000   64.608    0.435    0.301   17.996
  344.250   65.890    0.429    0.297   17.688
  344.500   66.554    0.419    0.295   17.726
  344.750   66.600    0.418    0.303   17.442
  345.000   66.075    0.425    0.311   17.479
  345.250   64.331    0.432    0.311   17.198
  345.500   62.570    0.441    0.306   16.597
  345.750   61.443    0.439    0.300   16.322
  346.000   64.501    0.416    0.305   15.751
  346.250   65.181    0.421    0.307   14.925
  346.500   64.656    0.430    0.301   14.662
  346.750   66.525    0.439    0.295   13.885
  347.000   67.776    0.442    0.285   13.400
  347.250   68.455    0.430    0.291   13.185
  347.500   67.297    0.418    0.297   13.220
  347.750   63.143    0.410    0.304   13.241
  348.000   60.209    0.409    0.310   13.269
  348.250   61.460    0.415    0.312   14.339
  348.500   62.124    0.435    0.310   14.914
  348.750   63.391    0.440    0.310   15.816
  349.000   73.105    0.447    0.310   16.169
  349.250   71.376    0.453    0.310   16.512
  349.500   66.604    0.447    0.311   16.547
  349.750   61.230    0.440    0.312   16.582
  350.000   58.882    0.435    0.311   16.307
  350.250   62.589    0.429    0.306   16.333
  350.500   65.662    0.426    0.303   16.062
  350.750   68.736    0.424    0.301   15.518
  351.000   71.825    0.423    0.302   15.534
  351.250   72.489    0.424    0.302   15.285
  351.500   68.320    0.424    0.300   15.023
  351.750   65.957    0.424    0.300   14.774
  352.000   64.845    0.427    0.304   14.537
  352.250   67.903    0.444    0.304   14.288
  352.500   71.579    0.477    0.292   14.319
  352.750   69.834    0.450    0.281   13.833
  353.000   71.116    0.423    0.279   13.611
  353.250   74.189    0.431    0.282   13.371
  353.500   74.853    0.442    0.284   12.911
  353.750   74.931    0.427    0.284   12.233
  354.000   75.595    0.430    0.285   11.793
  354.250   77.464    0.442    0.292   10.960
  354.500   76.924    0.458    0.293   10.385
  354.750   63.720    0.466    0.295   10.207
  355.000   58.346    0.453    0.297   10.049
  355.250   52.987    0.435    0.306   10.059
  355.500   51.844    0.426    0.309   10.081
  355.750   54.933    0.433    0.306   10.696
  356.000   57.404    0.443    0.299   11.125
  356.250   58.069    0.446    0.297   12.022
  356.500   59.335    0.436    0.295   13.245
  356.750   59.999    0.430    0.292   14.061
