~VERSION INFORMATION
 VERS.                 2.0:   CWLS LOG ASCII STANDARD -VERSION 2.0
 WRAP.                  NO:   ONE LINE PER DEPTH STEP
~WELL INFORMATION BLOCK
#MNEM.UNIT           DATA                    DESCRIPTION OF MNEMONIC
#---------    -------------------            -------------------------------
# Generated from Intellog Unique Number	CN_94_101/WELL/3431
WELL.         PARMOUNT RES                   : Well_name    - WELL
LOC .         01-01-095-19W4                 : Location     - LOCATION
UWI .         00/01-01-095-19W4/0            : Uwi          - UNIQUE WELL ID
ENTR.         T                              : Entered      - ENTERED BY
SRVC.         SCHLUMBERGER                   : Scn          - SERVICE COMPANY
DATE.         07/22/92                       : Date         - LOG DATE
STRT.M        200                            : top_depth    - START DEPTH
STOP.M        374.75                         : bot_depth    - STOP DEPTH
STEP.M        0.25                           : increment    - STEP LENGTH
 NULL. -999.2500:NULL Value
~CURVE INFORMATION BLOCK
#MNEM UNIT       ERCB CURVE CODE    CURVE DESCRIPTION
#-----------   ------------------   ----------------------------------
DEPT.M        00 001 00 00         : DEPTH        - DEPTH
GR  .API      00 310 00 00         : GR           - GAMMA RAY
CALI.MM       00 280 01 00         : CAL          - CALIPER
NPHI.V/V      00 330 00 00         : PHIN         - NEUTRON POROSITY (SANDSTONE)
DPHI.V/V      00 890 00 00         : PHID         - DENSITY POROSITY (SANDSTONE)
ILD .OHMM     00 120 00 00         : RESD         - DEEP RESISTIVITY (DIL)
~PARAMETER INFORMATION
#MNEM.UNIT           DATA             DESCRIPTION OF MNEMONIC
#---------         -----------     ------------------------------
GL  .M        646.8                : gl           - GROUND LEVEL ELEVATION
EREF.M        650.2                : kb           - ELEVATION OF DEPTH REFERENCE
DATM.M        650.2                : datum        - DATUM ELEVATION
TDD .M        387.5                : tdd          - TOTAL DEPTH DRILLER
RUN .         0.000000             : Run          - RUN NUMBER
MUD .         GEL                  : Mud_type     - MUD TYPE
MATR.         SANDSTONE            : Logunit      - NEUTRON MATRIX
TMAX.C        41                   : BHT          - MAXIMUM RECORDED TEMPERATURE
BHTD.M        387.5                : BHTDEP       - MAXIMUM RECORDED TEMPERATURE
RMT .C        17                   : MDTP         - TEMPERATURE OF MUD
MUDD.KG/M     1120                 : MWT          - MUD DENSITY
NEUT.         1                    : NEUTRON      - NEUTRON TYPE
RESI.         0                    : RESIST       - RESISTIVITY TYPE
RM  .OHMM     5.88                 : RM           - RESISTIVITY OF MUD
RMC .OHMM     6.6                  : RMC          - RESISTIVITY OF MUD CAKE
RMF .OHMM     6.6                  : RMF          - RESISTIVITY OF MUD FILTRATE
SUFT.C        4                    : SUFT         - SURFACE TEMPERATURE
~A  DEPTH       GR      CAL     PHIN     PHID     RESD
  200.000  113.900  176.867    0.447    0.218    5.927
  200.250  112.033  175.830    0.482    0.220    5.597
  200.500  105.187  175.830    0.451    0.207    5.597
  200.750   97.095  175.830    0.446    0.175    5.597
  201.000   85.270  173.755    0.450    0.114    5.491
  201.250   90.249  175.830    0.471    0.150    5.491
  201.500  105.187  175.830    0.470    0.210    5.491
  201.750  107.676  176.867    0.475    0.224    5.597
  202.000  103.320  176.867    0.506    0.219    5.597
  202.250  101.452  177.905    0.512    0.200    4.895
  202.500   98.963  174.793    0.477    0.178    4.895
  202.750   96.473  174.793    0.478    0.188    4.895
  203.000   97.095  174.793    0.497    0.212    4.917
  203.250   98.963  178.942    0.502    0.213    4.917
  203.500   97.095  181.017    0.490    0.193    4.895
  203.750   90.249  173.755    0.475    0.120    4.895
  204.000   90.249  176.867    0.480    0.135    4.711
  204.250   98.963  175.830    0.500    0.185    4.622
  204.500  104.564  177.905    0.501    0.239    4.448
  204.750  106.432  175.830    0.502    0.241    4.200
  205.000  108.921  175.830    0.499    0.242    4.042
  205.250  110.166  176.867    0.495    0.234    4.042
  205.500  108.921  177.905    0.492    0.238    4.042
  205.750  110.166  176.867    0.489    0.241    4.121
  206.000  114.523  176.867    0.497    0.239    4.121
  206.250  113.900  175.830    0.500    0.233    4.217
  206.500  107.054  173.755    0.451    0.202    3.905
  206.750   93.361  174.793    0.451    0.160    4.217
  207.000   85.270  175.830    0.450    0.134    4.802
  207.250   91.494  176.867    0.470    0.149    4.990
  207.500  103.320  177.905    0.467    0.218    4.895
  207.750  107.054  177.905    0.471    0.205    4.622
  208.000  108.921  174.793    0.475    0.227    4.448
  208.250  109.711  177.686    0.481    0.224    4.281
  208.500  110.950  175.620    0.485    0.224    4.281
  208.750  112.190  175.620    0.490    0.228    4.364
  209.000  112.190  175.620    0.495    0.235    4.534
  209.250  110.950  175.620    0.470    0.249    4.823
  209.500  109.711  175.620    0.451    0.241    5.109
  209.750  107.851  173.554    0.447    0.234    5.623
  210.000  105.372  176.653    0.447    0.229    6.072
  210.250  102.893  178.719    0.431    0.224    6.432
  210.500  100.413  175.620    0.412    0.219    6.908
  210.750   98.554  176.653    0.408    0.218    6.777
  211.000   99.793  174.587    0.408    0.225    6.777
  211.250   99.793  171.488    0.408    0.229    6.648
  211.500   98.554  174.587    0.411    0.229    6.777
  211.750   94.215  170.455    0.417    0.225    7.041
  212.000   90.496  159.091    0.411    0.229    7.601
  212.250   89.256  175.620    0.405    0.235    8.050
  212.500   89.627  173.755    0.395    0.239    8.577
  212.750   85.892  177.905    0.405    0.236    9.261
  213.000   82.780  173.755    0.404    0.228    9.085
  213.250   84.025  172.718    0.405    0.225    8.577
  213.500   87.759  173.755    0.416    0.224    7.943
  213.750   98.340  174.793    0.418    0.225    7.499
  214.000   98.963  177.905    0.428    0.246    7.499
  214.250   90.871  172.718    0.439    0.266    7.898
  214.500   88.382  169.606    0.445    0.283    7.041
  214.750   91.494  171.680    0.450    0.273    6.277
  215.000  102.697  161.307    0.450    0.251    5.705
  215.250  103.942  171.680    0.440    0.233    5.184
  215.500  102.697  172.718    0.430    0.233    5.012
  215.750  101.452  171.680    0.434    0.235    4.732
  216.000  102.075  175.830    0.450    0.238    4.642
  216.250  102.075  175.830    0.481    0.236    4.217
  216.500  102.893  175.620    0.485    0.240    4.058
  216.750  102.893  174.587    0.488    0.243    3.687
  217.000  100.413  174.587    0.481    0.243    3.286
  217.250   97.314  174.587    0.479    0.244    3.905
  217.500   95.455  173.554    0.450    0.230    4.553
  217.750   88.636  173.554    0.433    0.199    5.386
  218.000   81.818  174.587    0.433    0.185    6.522
  218.250   82.438  160.124    0.453    0.204    7.316
  218.500   84.917  172.521    0.450    0.264    8.050
  218.750   87.397  170.455    0.431    0.266    8.254
  219.000   90.496  169.421    0.405    0.251    8.254
  219.250   89.256  172.521    0.400    0.238    8.414
  219.500   81.818  171.488    0.404    0.243    8.414
  219.750   83.678  172.521    0.413    0.244    8.577
  220.000   91.116  174.587    0.421    0.244    8.414
  220.250   92.355  175.620    0.451    0.250    7.499
  220.500   93.595  177.686    0.451    0.246    6.683
  220.750   93.595  177.686    0.458    0.245    5.957
  221.000   93.595  178.719    0.468    0.255    5.517
  221.250   93.595  176.653    0.478    0.260    4.990
  221.500   93.595  179.752    0.483    0.261    4.990
  221.750   94.215  177.686    0.480    0.259    5.012
  222.000   94.835  175.620    0.473    0.248    4.917
  222.250   96.074  175.620    0.450    0.239    5.309
  222.500   89.876  176.653    0.420    0.239    5.843
  222.750   85.537  163.223    0.421    0.240    5.843
  223.000   88.017  177.686    0.476    0.231    5.843
  223.250   92.355  178.719    0.483    0.226    5.843
  223.500   95.455  176.653    0.479    0.223    5.517
  223.750   90.496  172.521    0.464    0.203    5.843
  224.000   77.479  172.521    0.421    0.180    6.432
  224.250   74.380  173.554    0.418    0.199    7.079
  224.500   77.479  167.355    0.420    0.255    6.683
  224.750   86.157  170.455    0.426    0.259    6.556
  225.000   89.876  171.488    0.445    0.260    6.432
  225.250   97.934  174.587    0.460    0.240    6.072
  225.500  104.752  175.620    0.458    0.239    5.843
  225.750  102.893  175.620    0.449    0.238    5.412
  226.000   97.314  175.620    0.461    0.239    5.309
  226.250   89.256  174.587    0.453    0.248    5.309
  226.500   86.157  176.653    0.421    0.251    5.109
  226.750   87.397  175.620    0.420    0.248    5.109
  227.000   89.876  175.620    0.450    0.243    5.109
  227.250   90.496  175.620    0.460    0.238    5.109
  227.500   91.116  174.587    0.479    0.240    5.109
  227.750   94.835  174.587    0.521    0.249    5.109
  228.000   95.455  174.587    0.543    0.251    4.732
  228.250   94.835  173.554    0.480    0.244    4.382
  228.500   91.116  176.653    0.446    0.243    3.981
  228.750   88.017  176.653    0.433    0.254    4.217
  229.000   84.298  172.521    0.421    0.266    4.553
  229.250   82.438  171.488    0.418    0.266    6.072
  229.500   83.058  174.587    0.418    0.271    6.432
  229.750   82.438  173.554    0.420    0.276    6.945
  230.000   82.438  170.455    0.423    0.283    6.813
  230.250   84.298  176.653    0.425    0.288    6.556
  230.500   87.397  179.752    0.435    0.275    6.432
  230.750   86.777  175.620    0.449    0.264    6.190
  231.000   85.537  175.620    0.448    0.255    6.072
  231.250   82.438  176.653    0.438    0.257    5.517
  231.500   81.198  173.554    0.428    0.263    5.517
  231.750   83.058  176.653    0.423    0.267    5.623
  232.000   87.397  175.620    0.428    0.246    5.623
  232.250   86.777  177.686    0.431    0.215    5.623
  232.500   85.537  176.653    0.428    0.160    5.623
  232.750   90.496  178.719    0.420    0.174    5.623
  233.000   95.455  177.686    0.427    0.205    5.623
  233.250   97.718  181.017    0.433    0.208    5.732
  233.500   98.963  182.054    0.440    0.210    5.732
  233.750  103.942  176.867    0.446    0.219    5.623
  234.000  107.054  176.867    0.475    0.213    5.623
  234.250  105.187  176.867    0.483    0.201    5.623
  234.500  103.942  176.867    0.480    0.201    5.623
  234.750  105.187  175.830    0.454    0.208    5.517
  235.000  104.564  175.830    0.446    0.210    5.517
  235.250  103.942  177.905    0.465    0.209    5.517
  235.500  103.942  177.905    0.463    0.214    5.412
  235.750  103.942  178.942    0.423    0.213    5.309
  236.000  103.942  178.942    0.423    0.211    5.208
  236.250  103.942  177.905    0.428    0.211    5.109
