~VERSION INFORMATION
 VERS.                 2.0:   CWLS LOG ASCII STANDARD -VERSION 2.0
 WRAP.                  NO:   ONE LINE PER DEPTH STEP
~WELL INFORMATION BLOCK
#MNEM.UNIT           DATA                    DESCRIPTION OF MNEMONIC
#---------    -------------------            -------------------------------
# Generated from Intellog Unique Number	CW_76_78/WELL/2562
WELL.         BARNWELL ET AL MCMULLEN        : Well_name    - WELL
LOC .         00/01-10-078-26W4/0            : Location     - LOCATION
UWI .         00/01-10-078-26W4/0            : Uwi          - UNIQUE WELL ID
ENTR.         MAX                            : Entered      - ENTERED BY
SRVC.         COMPUTALOG                     : Scn          - SERVICE COMPANY
STRT.M        320                            : top_depth    - START DEPTH
STOP.M        560                            : bot_depth    - STOP DEPTH
STEP.M        0.25                           : increment    - STEP LENGTH
 NULL. -999.2500:NULL Value
~CURVE INFORMATION BLOCK
#MNEM UNIT       ERCB CURVE CODE    CURVE DESCRIPTION
#-----------   ------------------   ----------------------------------
DEPT.M        00 001 00 00         : DEPTH        - DEPTH
GR  .API      00 310 00 00         : GR           - GAMMA RAY
ILD .OHMM     00 120 00 00         : RESD         - DEEP RESISTIVITY (DIL)
NPHI.V/V      00 330 00 00         : PHIN         - NEUTRON POROSITY (SANDSTONE)
DPHI.V/V      00 890 00 00         : PHID         - DENSITY POROSITY (SANDSTONE)
CALI.MM       00 280 01 00         : CAL          - CALIPER
~PARAMETER INFORMATION
#MNEM.UNIT           DATA             DESCRIPTION OF MNEMONIC
#---------         -----------     ------------------------------
GL  .M        610.3                : gl           - GROUND LEVEL ELEVATION
EREF.M        613.8                : kb           - ELEVATION OF DEPTH REFERENCE
DATM.M        610.3                : datum        - DATUM ELEVATION
TDD .M        561                  : tdd          - TOTAL DEPTH DRILLER
RUN .         ONE                  : Run          - RUN NUMBER
ENG .         BILL                 : Engineer     - RECORDING ENGINEER
WIT .         JIM                  : Witness      - WITNESSED BY
MUD .         GEL                  : Mud_type     - MUD TYPE
MATR.         SANDSTONE            : Logunit      - NEUTRON MATRIX
TMAX.C        26                   : BHT          - MAXIMUM RECORDED TEMPERATURE
BHTD.M        561                  : BHTDEP       - MAXIMUM RECORDED TEMPERATURE
RMT .C        21                   : MDTP         - TEMPERATURE OF MUD
MUDD.KG/M     1160                 : MWT          - MUD DENSITY
NEUT.         1                    : NEUTRON      - NEUTRON TYPE
RESI.         0                    : RESIST       - RESISTIVITY TYPE
RM  .OHMM     3.7                  : RM           - RESISTIVITY OF MUD
RMC .OHMM     2.4                  : RMC          - RESISTIVITY OF MUD CAKE
RMF .OHMM     3.5                  : RMF          - RESISTIVITY OF MUD FILTRATE
SUFT.C        -10                  : SUFT         - SURFACE TEMPERATURE
~A  DEPTH       GR     RESD     PHIN     PHID      CAL
  320.000  115.159    2.566    0.482    0.213  173.864
  320.250  113.894    2.710    0.473    0.211  170.227
  320.500  123.327    2.836    0.464    0.213  168.126
  320.750  129.706    2.861    0.477    0.216  167.552
  321.000  129.972    2.859    0.487    0.218  168.505
  321.250  123.210    2.859    0.487    0.218  168.949
  321.500  125.003    2.854    0.479    0.220  171.437
  321.750  125.575    2.801    0.489    0.221  175.427
  322.000  124.004    2.773    0.485    0.223  176.380
  322.250  123.965    2.745    0.467    0.228  176.841
  322.500  125.142    2.694    0.444    0.228  177.777
  322.750  126.931    2.642    0.476    0.229  178.221
  323.000  126.596    2.641    0.479    0.224  177.639
  323.250  122.892    2.763    0.476    0.212  177.639
  323.500  118.878    2.973    0.461    0.206  177.508
  323.750  115.480    3.413    0.443    0.206  175.407
  324.000  105.358    3.506    0.416    0.203  173.298
  324.250   95.240    3.504    0.356    0.192  172.231
  324.500   86.645    3.534    0.316    0.179  172.158
  324.750   96.074    3.631    0.356    0.201  172.602
  325.000   99.394    3.661    0.457    0.224  172.028
  325.250   83.775    3.694    0.398    0.198  167.374
  325.500   94.119    3.795    0.347    0.161  166.282
  325.750   99.277    4.198    0.354    0.105  169.288
  326.000  101.070    5.383    0.364    0.241  172.777
  326.250  108.971    6.010    0.360    0.260  172.720
  326.500  112.597    5.895    0.346    0.252  171.104
  326.750  116.833    5.574    0.346    0.237  170.530
  327.000  123.208    5.319    0.367    0.231  169.964
  327.250  129.883    4.891    0.389    0.226  169.398
  327.500  128.321    4.415    0.395    0.210  168.824
  327.750  123.701    3.877    0.398    0.202  168.241
  328.000  119.382    3.565    0.417    0.213  171.731
  328.250  115.062    3.433    0.430    0.222  172.692
  328.500  111.053    3.368    0.438    0.217  171.100
  328.750  110.098    3.213    0.448    0.226  169.508
  329.000  113.723    3.095    0.465    0.232  167.916
  329.250  115.211    2.953    0.467    0.238  167.325
  329.500  112.419    2.741    0.483    0.242  167.268
  329.750  110.552    2.639    0.513    0.244  166.694
  330.000  114.784    2.762    0.530    0.254  165.086
  330.250  112.297    3.084    0.510    0.266  164.520
  330.500   97.904    4.543    0.461    0.277  163.946
  330.750   89.619    5.563    0.386    0.283  163.363
  331.000   80.108    6.386    0.375    0.281  162.789
  331.250   69.981    7.467    0.373    0.276  163.241
  331.500   65.671    8.651    0.374    0.263  163.685
  331.750   65.938    9.221    0.378    0.254  163.620
  332.000   77.494    8.403    0.378    0.254  164.040
  332.250   78.381    7.110    0.377    0.288  165.001
  332.500   79.258    5.335    0.409    0.291  164.927
  332.750   83.184    4.041    0.446    0.265  164.879
  333.000   92.006    3.891    0.489    0.263  169.895
  333.250   98.070    4.148    0.496    0.280  170.840
  333.500   94.367    4.896    0.492    0.287  170.783
  333.750   86.697    5.995    0.447    0.290  169.700
  334.000   76.575    6.510    0.397    0.291  165.563
  334.250   71.029    7.754    0.395    0.294  162.953
  334.500   69.163    8.657    0.392    0.298  161.861
  334.750   66.680    9.756    0.378    0.304  161.788
  335.000   63.578   10.792    0.375    0.319  161.715
  335.250   63.238   11.399    0.375    0.316  161.666
  335.500   63.810   11.928    0.378    0.312  161.092
  335.750   66.204   12.256    0.385    0.310  161.092
  336.000   66.170   12.361    0.392    0.300  160.420
  336.250   63.683   12.582    0.389    0.298  159.870
  336.500   61.501   12.807    0.381    0.306  158.771
  336.750   62.688   13.281    0.382    0.317  158.722
  337.000   63.260   14.828    0.411    0.316  158.132
  337.250   62.005   17.020    0.418    0.311  159.093
  337.500   62.576   19.720    0.416    0.312  165.136
  337.750   58.557   22.846    0.313    0.313  169.143
  338.000   55.469   27.719    0.259    0.231  166.524
  338.250   52.371   32.113    0.214    0.155  166.451
  338.500   52.322   31.503    0.205    0.123  169.448
  338.750   56.874   22.783    0.213    0.183  169.884
  339.000   60.805   18.070    0.252    0.233  166.765
  339.250   60.766   15.867    0.342    0.286  163.137
  339.500   59.505   14.457    0.380    0.298  161.036
  339.750   60.993   13.791    0.392    0.300  159.952
  340.000   60.343   13.791    0.386    0.295  158.869
  340.250   56.940   13.773    0.377    0.290  158.303
  340.500   57.812   14.149    0.380    0.294  157.212
  340.750   56.857   14.675    0.378    0.292  156.129
  341.000   58.345   15.357    0.363    0.293  155.539
  341.250   56.478   15.490    0.356    0.291  155.999
  341.500   55.208   14.778    0.360    0.290  157.970
  341.750   55.169   14.102    0.373    0.302  159.924
  342.000   55.435   13.580    0.381    0.314  159.350
  342.250   55.706   13.201    0.375    0.316  158.259
  342.500   56.273   13.069    0.380    0.320  157.192
  342.750   57.761   13.180    0.389    0.332  155.592
  343.000   58.333   13.541    0.396    0.339  154.501
  343.250   57.378   14.169    0.403    0.343  154.427
  343.500   57.949   14.695    0.412    0.340  154.362
  343.750   60.043   15.238    0.403    0.315  153.796
  344.000   60.305   15.512    0.387    0.297  153.222
  344.250   58.743   15.501    0.369    0.297  152.139
  344.500   55.951   15.207    0.366    0.299  152.074
  344.750   54.996   14.919    0.373    0.292  153.019
  345.000   56.488   14.771    0.377    0.290  153.462
  345.250   58.582   14.896    0.382    0.289  153.389
  345.500   59.459   14.887    0.393    0.289  153.324
  345.750   58.204   14.740    0.392    0.290  153.275
  346.000   56.943   14.460    0.380    0.289  154.212
  346.250   58.116   13.926    0.376    0.289  154.656
  346.500   58.687   13.287    0.364    0.291  155.091
  346.750   58.042   12.679    0.369    0.296  155.552
  347.000   60.141   11.987    0.395    0.299  155.987
  347.250   67.432   11.331    0.411    0.310  157.449
  347.500   65.255   11.220    0.415    0.298  158.919
  347.750   60.019   11.634    0.403    0.300  161.884
  348.000   56.926   12.518    0.387    0.314  162.344
  348.250   55.966   13.719    0.369    0.305  162.788
  348.500   55.927   14.227    0.363    0.284  162.214
  348.750   55.577   14.349    0.368    0.282  160.613
  349.000   55.543   13.690    0.374    0.285  160.047
  349.250   55.504   12.944    0.370    0.290  160.483
  349.500   56.071   12.464    0.358    0.289  159.909
  349.750   60.918   12.228    0.361    0.291  158.826
  350.000   65.155   12.333    0.371    0.297  157.234
  350.250   64.204   12.671    0.380    0.297  156.142
  350.500   59.885   13.140    0.383    0.293  155.560
  350.750   56.486   13.879    0.379    0.289  154.469
  351.000   53.999   15.071    0.367    0.283  153.903
  351.250   53.960   15.484    0.354    0.277  152.820
  351.500   55.453   15.190    0.347    0.275  152.254
  351.750   57.246   14.494    0.347    0.270  152.254
  352.000   58.119   13.329    0.352    0.260  152.116
  352.250   59.907   12.032    0.357    0.259  152.559
  352.500   62.316   10.860    0.362    0.264  152.494
  352.750   63.494   10.268    0.378    0.277  152.930
  353.000   63.459    9.888    0.394    0.292  153.883
  353.250   65.548    9.700    0.400    0.300  155.345
  353.500   68.573    9.428    0.388    0.310  157.316
  353.750   77.085    9.080    0.374    0.294  159.796
  354.000   86.208    8.826    0.356    0.273  161.249
  354.250   87.080    8.421    0.349    0.254  161.184
  354.500   78.495    8.110    0.315    0.252  160.602
  354.750   60.127    7.883    0.313    0.271  159.527
  355.000   66.807    7.663    0.337    0.283  158.444
  355.250   78.984    7.244    0.352    0.283  157.870
  355.500   87.190    6.784    0.370    0.269  157.788
  355.750   89.895    6.595    0.379    0.273  158.757
  356.000   91.383    6.470    0.385    0.278  160.219
  356.250   94.708    6.231    0.392    0.263  162.182
