~VERSION INFORMATION
 VERS.                 2.0:   CWLS LOG ASCII STANDARD -VERSION 2.0
 WRAP.                  NO:   ONE LINE PER DEPTH STEP
~WELL INFORMATION BLOCK
#MNEM.UNIT           DATA                    DESCRIPTION OF MNEMONIC
#---------    -------------------            -------------------------------
# Generated from Intellog Unique Number	CW_73_75/WELL/185
WELL.         BOWTEX MARTEN HILLS 01-04      : Well_name    - WELL
LOC .         00/01-04-075-23W4/0            : Location     - LOCATION
UWI .         00/01-04-075-23W4/0            : Uwi          - UNIQUE WELL ID
ENTR.         JAYE                           : Entered      - ENTERED BY
SRVC.         WESTERN ATLAS                  : Scn          - SERVICE COMPANY
DATE.         18 MAR 88                      : Date         - LOG DATE
STRT.M        435                            : top_depth    - START DEPTH
STOP.M        640                            : bot_depth    - STOP DEPTH
STEP.M        0.25                           : increment    - STEP LENGTH
 NULL. -999.2500:NULL Value
~CURVE INFORMATION BLOCK
#MNEM UNIT       ERCB CURVE CODE    CURVE DESCRIPTION
#-----------   ------------------   ----------------------------------
DEPT.M        00 001 00 00         : DEPTH        - DEPTH
ILD .OHMM     00 120 00 00         : RESD         - DEEP RESISTIVITY (DIL)
NPHI.V/V      00 330 00 00         : PHIN         - NEUTRON POROSITY (SANDSTONE)
DPHI.V/V      00 890 00 00         : PHID         - DENSITY POROSITY (SANDSTONE)
GR  .API      00 310 00 00         : GR           - GAMMA RAY
CALI.MM       00 280 01 00         : CAL          - CALIPER
~PARAMETER INFORMATION
#MNEM.UNIT           DATA             DESCRIPTION OF MNEMONIC
#---------         -----------     ------------------------------
GL  .M        715                  : gl           - GROUND LEVEL ELEVATION
EREF.M        718.3                : kb           - ELEVATION OF DEPTH REFERENCE
DATM.M        715                  : datum        - DATUM ELEVATION
TDD .M        640                  : tdd          - TOTAL DEPTH DRILLER
RUN .         ONE                  : Run          - RUN NUMBER
ENG .         NOWAKOWSKI           : Engineer     - RECORDING ENGINEER
WIT .         NUNEZ                : Witness      - WITNESSED BY
BASE.         RDD                  : Branch       - HOME BASE OF LOGGING UNIT
MUD .         GEL CHEM             : Mud_type     - MUD TYPE
MATR.         SANDSTONE            : Logunit      - NEUTRON MATRIX
TMAX.C        30                   : BHT          - MAXIMUM RECORDED TEMPERATURE
BHTD.M        640.2                : BHTDEP       - MAXIMUM RECORDED TEMPERATURE
RMT .C        19                   : MDTP         - TEMPERATURE OF MUD
MUDD.KG/M     1150                 : MWT          - MUD DENSITY
NEUT.         1                    : NEUTRON      - NEUTRON TYPE
RESI.         0                    : RESIST       - RESISTIVITY TYPE
RM  .OHMM     3.4                  : RM           - RESISTIVITY OF MUD
RMC .OHMM     4.65                 : RMC          - RESISTIVITY OF MUD CAKE
RMF .OHMM     4.78                 : RMF          - RESISTIVITY OF MUD FILTRATE
SUFT.C        0                    : SUFT         - SURFACE TEMPERATURE
~A  DEPTH     RESD     PHIN     PHID       GR      CAL
# ...
  617.500   11.926    0.346    0.298   54.137  203.554
  617.750   11.111    0.354    0.296   51.041  203.762
  618.000   10.467    0.353    0.294   49.134  204.179
  618.250    9.678    0.341    0.291   49.043  204.176
  618.500    9.101    0.334    0.289   53.029  203.755
  618.750    8.590    0.342    0.288   56.639  203.648
  619.000    8.124    0.356    0.285   57.304  203.435
  619.250    7.755    0.357    0.284   60.100  203.014
  619.500    7.430    0.347    0.281   62.957  202.697
  619.750    7.173    0.336    0.275   59.859  202.589
  620.000    7.097    0.337    0.272   61.468  203.322
  620.250    7.166    0.342    0.273   64.071  203.948
  620.500    7.374    0.342    0.272   67.495  204.156
  620.750    7.776    0.334    0.261   69.227  203.734
  621.000    8.229    0.326    0.245   66.187  203.732
  621.250    8.776    0.319    0.231   65.852  204.149
  621.500    9.305    0.311    0.223   68.519  204.147
  621.750   10.035    0.305    0.218   71.628  204.144
  622.000   10.965    0.297    0.208   75.993  203.932
  622.250   12.004    0.287    0.196   79.227  203.720
  622.500   13.240    0.277    0.183   75.065  204.137
  622.750   14.092    0.242    0.165   69.330  204.764
  623.000   14.365    0.242    0.140   64.664  205.076
  623.250   13.011    0.250    0.145   62.882  205.284
  623.500   10.142    0.271    0.183   65.866  205.596
  623.750    8.798    0.288    0.204   73.553  206.328
  624.000    8.273    0.305    0.212   78.359  206.745
  624.250    8.545    0.300    0.211   81.405  206.743
  624.500    8.842    0.297    0.201   83.258  206.741
  624.750    9.254    0.304    0.190   81.287  206.738
  625.000    9.667    0.319    0.201   82.897  206.736
  625.250    9.798    0.323    0.206   87.382  206.734
  625.500    9.675    0.314    0.193   88.612  206.731
  625.750    9.463    0.300    0.180   86.953  207.673
  626.000    8.950    0.282    0.123   84.607  209.139
  626.250    8.624    0.261    0.087   75.614  209.766
  626.500    8.483    0.265    0.023   74.459  210.288
  626.750    8.502    0.288    0.113   80.330  210.496
  627.000    8.538    0.303    0.161   83.191  210.493
  627.250    8.527    0.304    0.200   80.780  210.596
  627.500    8.498    0.301    0.198   81.002  210.489
  627.750    8.359    0.304    0.188   85.619  210.486
  628.000    8.207    0.321    0.182   90.863  210.484
  628.250    8.043    0.320    0.181   95.224  210.482
  628.500    7.853    0.315    0.179  101.094  210.479
  628.750    7.783    0.312    0.174  106.775  210.372
  629.000    7.729    0.325    0.168  110.074  210.579
  629.250    7.717    0.325    0.161  112.052  210.892
  629.500    7.648    0.318    0.154  113.089  211.099
  629.750    7.552    0.317    0.151  104.849  211.097
  630.000    7.415    0.322    0.160  105.199  210.885
  630.250    7.199    0.320    0.167  107.116  209.939
  630.500    6.782    0.318    0.167  100.131  209.097
  630.750    5.961    0.317    0.152  101.863  208.885
  631.000    5.190    0.320    0.136  120.835  209.093
  631.250    4.361    0.549    0.230  113.411  210.978
  631.500    4.856    0.579    0.269   93.003  213.388
  631.750    5.561    0.414    0.310   79.183  210.869
  632.000    6.214    0.367    0.304   75.146  205.204
  632.250    7.430    0.337    0.291   70.605  204.048
  632.500    8.320    0.319    0.318   64.495  204.045
  632.750    8.062    0.334    0.319   63.842  204.043
  633.000    7.343    0.364    0.306   69.962  204.041
  633.250    6.577    0.367    0.302   77.965  203.934
  633.500    6.254    0.355    0.303   84.335  203.826
  633.750    6.164    0.360    0.309   94.026  203.614
  634.000    6.202    0.386    0.315  104.851  204.031
  634.250    6.251    0.377    0.305  112.346  204.134
  634.500    6.313    0.380    0.205  123.107  207.698
  634.750    6.399    0.388    0.183  135.182  213.778
  635.000    6.572    0.353    0.167  137.289  217.236
  635.250    6.725    0.355    0.156  137.265  217.549
  635.500    7.064    0.441    0.201  137.299  211.149
  635.750    7.477    0.551    0.266  138.527  208.525
  636.000    7.824    0.492    0.305  133.296  206.635
  636.250    8.174    0.412    0.326   70.317  203.591
  636.500    8.442    0.374    0.316   65.773  200.862
  636.750    8.605    0.371    0.309   72.274  198.762
  637.000    8.739    0.458    0.314   78.388  196.873
  637.250    8.629    0.492    0.367   81.749  195.717
  637.500    8.346    0.484    0.288   66.924  194.980
  637.750    7.805    0.405    0.266   56.681  193.929
  638.000    7.436    0.368    0.249   50.758  193.298
  638.250    7.652    0.332    0.235   48.348  193.400
  638.500    8.221    0.315    0.229   50.767  194.447
  638.750    8.701    0.314    0.229   65.979  194.340
  639.000    8.787    0.351    0.240   92.038  191.820
  639.250    8.595    0.380    0.293  111.702  182.694
  639.500    8.423    0.388    0.315  116.129  167.695
  639.750    8.255    0.397    0.338  117.612  151.018
  640.000    8.212    0.409    0.369  117.898  135.915
