~VERSION INFORMATION
 VERS.                 2.0:   CWLS LOG ASCII STANDARD -VERSION 2.0
 WRAP.                  NO:   ONE LINE PER DEPTH STEP
~WELL INFORMATION BLOCK
#MNEM.UNIT           DATA                    DESCRIPTION OF MNEMONIC
#---------    -------------------            -------------------------------
# Generated from Intellog Unique Number	CW_79_81/WELL/2440
WELL.         01-08-080-21W4                 : Well_name    - WELL
LOC .         00/01-08-080-21W4/0            : Location     - LOCATION
UWI .         00/01-08-080-21W4/0            : Uwi          - UNIQUE WELL ID
ENTR.         MAX                            : Entered      - ENTERED BY
SRVC.         SCHLUMBERGER                   : Scn          - SERVICE COMPANY
STRT.M        215                            : top_depth    - START DEPTH
STOP.M        449.75                         : bot_depth    - STOP DEPTH
STEP.M        0.25                           : increment    - STEP LENGTH
 NULL. -999.2500:NULL Value
~CURVE INFORMATION BLOCK
#MNEM UNIT       ERCB CURVE CODE    CURVE DESCRIPTION
#-----------   ------------------   ----------------------------------
DEPT.M        00 001 00 00         : DEPTH        - DEPTH
ILD .OHMM     00 120 00 00         : RESD         - DEEP RESISTIVITY (DIL)
NPHI.V/V      00 330 00 00         : PHIN         - NEUTRON POROSITY (SANDSTONE)
DPHI.V/V      00 890 00 00         : PHID         - DENSITY POROSITY (SANDSTONE)
GR  .API      00 310 00 00         : GR           - GAMMA RAY
~PARAMETER INFORMATION
#MNEM.UNIT           DATA             DESCRIPTION OF MNEMONIC
#---------         -----------     ------------------------------
GL  .M        583.3                : gl           - GROUND LEVEL ELEVATION
EREF.M        587                  : kb           - ELEVATION OF DEPTH REFERENCE
DATM.M        583.3                : datum        - DATUM ELEVATION
TDD .M        507                  : tdd          - TOTAL DEPTH DRILLER
RUN .         ONE                  : Run          - RUN NUMBER
ENG .         BILL                 : Engineer     - RECORDING ENGINEER
WIT .         JIM                  : Witness      - WITNESSED BY
MUD .         GEL                  : Mud_type     - MUD TYPE
MATR.         SANDSTONE            : Logunit      - NEUTRON MATRIX
TMAX.C        23                   : BHT          - MAXIMUM RECORDED TEMPERATURE
BHTD.M        507                  : BHTDEP       - MAXIMUM RECORDED TEMPERATURE
MATR.         1                    : LOGUNIT      - NEUTRON MATRIX
RMT .C        15                   : MDTP         - TEMPERATURE OF MUD
NEUT.         1                    : NEUTRON      - NEUTRON TYPE
RESI.         0                    : RESIST       - RESISTIVITY TYPE
RMC .OHMM     2.33                 : RMC          - RESISTIVITY OF MUD CAKE
RMF .OHMM     2.19                 : RMF          - RESISTIVITY OF MUD FILTRATE
SUFT.C        -15                  : SUFT         - SURFACE TEMPERATURE
~A  DEPTH     RESD     PHIN     PHID       GR
# ...
  389.000   12.534    0.360    0.050   78.610
  389.250   12.397    0.358    0.044   80.165
  389.500   12.369    0.355    0.043   81.315
  389.750   12.304    0.351    0.049   80.982
  390.000   12.154    0.349    0.060   79.693
  390.250   11.945    0.352    0.061   79.639
  390.500   11.843    0.355    0.057   79.960
  390.750   11.903    0.355    0.053   79.703
  391.000   12.097    0.353    0.055   78.354
  391.250   12.261    0.348    0.059   77.411
  391.500   12.326    0.344    0.063   77.382
  391.750   12.290    0.360    0.064   77.930
  392.000   12.072    0.371    0.061   78.654
  392.250   11.688    0.375    0.054   78.967
  392.500   11.310    0.372    0.046   78.778
  392.750   11.086    0.360    0.036   78.178
  393.000   11.078    0.341    0.027   77.652
  393.250   11.365    0.322    0.027   78.674
  393.500   11.729    0.325    0.059   81.668
  393.750   12.034    0.334    0.065   83.405
  394.000   12.147    0.342    0.063   84.642
  394.250   11.999    0.347    0.057   85.307
  394.500   11.544    0.351    0.051   85.049
  394.750   10.653    0.354    0.050   82.709
  395.000   10.069    0.353    0.046   80.060
  395.250    9.957    0.337    0.038   78.569
  395.500    9.912    0.332    0.041   78.466
  395.750    9.962    0.332    0.050   78.991
  396.000   10.106    0.335    0.059   79.574
  396.250   10.325    0.339    0.063   79.701
  396.500   10.397    0.342    0.053   79.040
  396.750   10.405    0.346    0.040   76.695
  397.000   10.597    0.335    0.021   73.137
  397.250   10.972    0.308   -0.005   70.032
  397.500   11.577    0.272   -0.029   68.115
  397.750   12.811    0.246   -0.036   67.229
  398.000   14.415    0.239   -0.019   67.402
  398.250   16.721    0.239    0.018   69.085
  398.500   19.170    0.287    0.063   71.455
  398.750   20.678    0.332    0.092   73.243
  399.000   20.774    0.353    0.100   73.865
  399.250   20.155    0.357    0.105   73.184
  399.500   19.063    0.356    0.113   72.022
  399.750   17.888    0.353    0.121   70.671
  400.000   17.256    0.344    0.122   69.070
  400.250   17.081    0.333    0.119   67.746
  400.500   17.297    0.325    0.112   66.935
  400.750   17.939    0.318    0.083   66.419
  401.000   18.513    0.301    0.043   65.607
  401.250   19.080    0.287    0.011   66.203
  401.500   19.561    0.282   -0.010   67.582
  401.750   19.787    0.286   -0.025   68.573
  402.000   19.755    0.297   -0.042   68.981
  402.250   19.576    0.311   -0.070   69.959
  402.500   19.229    0.321   -0.066   71.769
  402.750   18.561    0.334   -0.048   72.651
  403.000   17.715    0.343   -0.030   73.746
  403.250   16.833    0.346   -0.012   75.102
  403.500   16.041    0.343    0.011   76.487
  403.750   15.385    0.334    0.046   77.315
  404.000   15.104    0.336    0.051   76.929
  404.250   15.114    0.343    0.045   73.726
  404.500   15.275    0.355    0.045   72.337
  404.750   15.568    0.365    0.055   71.671
  405.000   15.967    0.368    0.077   71.175
  405.250   16.523    0.359    0.120   71.185
  405.500   16.975    0.349    0.164   72.995
  405.750   17.093    0.339    0.168   72.028
  406.000   17.208    0.332    0.165   70.525
  406.250   17.245    0.334    0.158   68.699
  406.500   17.153    0.348    0.151   66.729
  406.750   16.823    0.370    0.144   64.360
  407.000   16.401    0.386    0.136   62.362
  407.250   16.014    0.385    0.112   59.874
  407.500   16.227    0.367    0.091   57.639
  407.750   16.968    0.330    0.064   55.060
  408.000   18.185    0.276    0.022   52.869
  408.250   20.195    0.213   -0.052   53.271
  408.500   22.691    0.205   -0.073   53.990
  408.750   25.502    0.241   -0.039   53.734
  409.000   27.282    0.243   -0.021   52.688
  409.250   27.975    0.223   -0.031   51.553
  409.500   28.237    0.199   -0.061   50.460
  409.750   29.521    0.189   -0.084   49.220
  410.000   30.796    0.184   -0.095   50.484
  410.250   32.291    0.182   -0.092   52.028
  410.500   34.092    0.183   -0.083   53.109
  410.750   36.234    0.189   -0.072   54.065
  411.000   38.033    0.200   -0.060   55.060
  411.250   37.350    0.224   -0.040   56.283
  411.500   35.134    0.257   -0.023   57.300
  411.750   32.343    0.286   -0.006   57.991
  412.000   29.642    0.312    0.010   58.538
  412.250   27.198    0.335    0.025   59.131
  412.500   24.986    0.355    0.040   60.123
  412.750   22.608    0.375    0.059   62.408
  413.000   21.233    0.389    0.075   64.294
  413.250   19.767    0.384    0.073   66.031
  413.500   18.804    0.380    0.078   67.768
  413.750   18.086    0.376    0.084   69.169
  414.000   17.482    0.374    0.087   70.058
  414.250   16.841    0.369    0.081   70.425
  414.500   16.361    0.358    0.067   70.494
  414.750   15.973    0.341    0.057   69.728
  415.000   15.675    0.348    0.049   69.274
  415.250   15.303    0.360    0.050   69.705
  415.500   14.827    0.363    0.058   71.118
  415.750   14.227    0.349    0.065   73.615
  416.000   13.767    0.330    0.065   76.014
  416.250   13.389    0.332    0.060   78.324
  416.500   13.059    0.344    0.052   78.923
  416.750   12.717    0.359    0.032   78.762
  417.000   12.339    0.372    0.005   78.517
  417.250   11.884    0.375   -0.015   78.771
  417.500   11.642    0.373   -0.017   79.686
  417.750   11.580    0.368   -0.002   81.184
  418.000   11.510    0.358    0.021   82.432
  418.250   11.443    0.350    0.037   82.536
  418.500   11.365    0.346    0.039   81.777
  418.750   11.191    0.341    0.015   81.750
  419.000   10.958    0.340   -0.014   82.468
  419.250   10.643    0.350   -0.001   83.160
  419.500   10.365    0.357    0.036   83.604
  419.750   10.281    0.348    0.059   83.935
  420.000   10.464    0.329    0.059   84.264
  420.250   10.968    0.332    0.046   84.727
  420.500   11.111    0.356    0.031   84.953
  420.750   11.053    0.366    0.045   85.456
  421.000   10.871    0.367    0.055   85.672
  421.250   10.632    0.359    0.058   85.578
  421.500   10.431    0.345    0.057   85.308
  421.750   10.473    0.324    0.059   85.158
  422.000   10.897    0.321    0.053   85.184
  422.250   11.359    0.332    0.047   83.502
  422.500   11.692    0.344    0.037   81.285
  422.750   11.997    0.343    0.023   78.629
  423.000   12.371    0.326    0.006   75.795
  423.250   13.111    0.285   -0.025   73.143
  423.500   14.262    0.250   -0.070   72.797
  423.750   15.847    0.235   -0.100   74.799
  424.000   17.676    0.251   -0.076   75.460
  424.250   19.221    0.270   -0.054   75.463
  424.500   20.057    0.279   -0.051   75.242
  424.750   20.201    0.282   -0.054   74.963
  425.000   19.939    0.283   -0.044   74.843
  425.250   19.555    0.284    0.004   74.909
  425.500   19.291    0.286    0.025   75.093
  425.750   19.300    0.294    0.028   75.314
  426.000   19.543    0.303    0.029   75.462
  426.250   19.814    0.302    0.042   75.241
  426.500   19.951    0.295    0.046   74.477
  426.750   20.024    0.284    0.030   72.935
  427.000   20.270    0.266   -0.001   70.982
  427.250   20.557    0.245   -0.026   70.346
  427.500   20.574    0.235   -0.018   71.916
  427.750   19.626    0.266    0.057   76.477
  428.000   18.485    0.283    0.073   80.165
  428.250   17.156    0.291    0.069   81.521
  428.500   15.872    0.300    0.068   81.558
  428.750   14.696    0.319    0.073   81.598
  429.000   13.795    0.344    0.075   81.818
  429.250   13.271    0.349    0.050   80.543
  429.500   12.718    0.345    0.037   77.009
  429.750   12.488    0.335    0.043   73.047
  430.000   12.572    0.323    0.056   68.302
  430.250   13.081    0.312    0.075   62.609
  430.500   14.337    0.305    0.097   55.720
  430.750   17.840    0.308    0.128   46.812
  431.000   21.369    0.312    0.146   44.366
  431.250   25.575    0.305    0.160   41.169
  431.500   30.259    0.296    0.161   37.967
  431.750   35.586    0.288    0.155   34.907
  432.000   41.778    0.283    0.150   32.182
  432.250   50.067    0.282    0.148   29.867
