~VERSION INFORMATION
 VERS.                 2.0:   CWLS LOG ASCII STANDARD -VERSION 2.0
 WRAP.                  NO:   ONE LINE PER DEPTH STEP
~WELL INFORMATION BLOCK
#MNEM.UNIT           DATA                    DESCRIPTION OF MNEMONIC
#---------    -------------------            -------------------------------
# Generated from Intellog Unique Number	CX_WELLS/WELL/2743
WELL.         THORNBURY                      : Well_name    - WELL
LOC .         00/01-09-080-13W4/0            : Location     - LOCATION
UWI .         00/01-09-080-13W4/0            : Uwi          - UNIQUE WELL ID
ENTR.         T                              : Entered      - ENTERED BY
SRVC.         SCHLUMBERGER                   : Scn          - SERVICE COMPANY
STRT.M        270                            : top_depth    - START DEPTH
STOP.M        500                            : bot_depth    - STOP DEPTH
STEP.M        0.25                           : increment    - STEP LENGTH
 NULL. -999.2500:NULL Value
~CURVE INFORMATION BLOCK
#MNEM UNIT       ERCB CURVE CODE    CURVE DESCRIPTION
#-----------   ------------------   ----------------------------------
DEPT.M        00 001 00 00         : DEPTH        - DEPTH
GR  .API      00 310 00 00         : GR           - GAMMA RAY
NPHI.V/V      00 330 00 00         : PHIN         - NEUTRON POROSITY (SANDSTONE)
DPHI.V/V      00 890 00 00         : PHID         - DENSITY POROSITY (SANDSTONE)
ILD .OHMM     00 120 00 00         : RESD         - DEEP RESISTIVITY (DLL)
~PARAMETER INFORMATION
#MNEM.UNIT           DATA             DESCRIPTION OF MNEMONIC
#---------         -----------     ------------------------------
GL  .M        681.9                : gl           - GROUND LEVEL ELEVATION
EREF.M        685.9                : kb           - ELEVATION OF DEPTH REFERENCE
DATM.M        685.9                : datum        - DATUM ELEVATION
TDD .M        504                  : tdd          - TOTAL DEPTH DRILLER
RUN .         ONE                  : Run          - RUN NUMBER
ENG .         BILL                 : Engineer     - RECORDING ENGINEER
WIT .         JIM                  : Witness      - WITNESSED BY
MUD .         GEL                  : Mud_type     - MUD TYPE
MATR.         SANDSTONE            : Logunit      - NEUTRON MATRIX
TMAX.C        30                   : BHT          - MAXIMUM RECORDED TEMPERATURE
BHTD.M        504                  : BHTDEP       - MAXIMUM RECORDED TEMPERATURE
MATR.         1                    : LOGUNIT      - NEUTRON MATRIX
RMT .C        20                   : MDTP         - TEMPERATURE OF MUD
NEUT.         1                    : NEUTRON      - NEUTRON TYPE
RESI.         3.5                  : RESIST       - RESISTIVITY TYPE
RMC .OHMM     2.3                  : RMC          - RESISTIVITY OF MUD CAKE
RMF .OHMM     4.5                  : RMF          - RESISTIVITY OF MUD FILTRATE
SUFT.C        4                    : SUFT         - SURFACE TEMPERATURE
~A  DEPTH       GR     PHIN     PHID     RESD
# ...
  357.000   60.663    0.423    0.289   14.076
  357.250   59.521    0.421    0.284   14.375
  357.500   54.764    0.423    0.284   14.151
  357.750   51.244    0.425    0.289   14.166
  358.000   50.086    0.430    0.292   13.686
  358.250   48.943    0.431    0.297   13.445
  358.500   49.607    0.425    0.298   12.739
  358.750   52.681    0.421    0.300   12.521
  359.000   52.758    0.435    0.300   12.097
  359.250   53.422    0.442    0.297   11.883
  359.500   54.071    0.434    0.291   11.693
  359.750   61.361    0.432    0.277   11.284
  360.000   73.484    0.438    0.251   11.302
  360.250   80.186    0.444    0.236   11.120
  360.500   80.248    0.441    0.246   10.732
  360.750   82.719    0.437    0.267    9.782
  361.000   87.600    0.440    0.272    8.595
  361.250   91.275    0.448    0.270    7.835
  361.500   91.353    0.453    0.259    7.281
  361.750   94.411    0.456    0.249    7.160
  362.000  101.716    0.454    0.239    7.042
  362.250  108.418    0.458    0.229    6.799
  362.500  109.669    0.469    0.225    6.322
  362.750  108.542    0.475    0.218    6.095
  363.000  108.620    0.480    0.214    5.772
  363.250  109.886    0.480    0.210    5.364
  363.500  110.535    0.478    0.217    4.803
  363.750  111.199    0.482    0.219    4.548
  364.000  110.057    0.477    0.218    4.308
  364.250  109.516    0.477    0.220    4.082
  364.500  108.374    0.506    0.223    4.010
  364.750  107.231    0.527    0.232    3.871
  365.000  107.895    0.541    0.230    3.807
  365.250  112.189    0.554    0.225    3.744
  365.500  118.289    0.599    0.221    3.682
  365.750  120.760    0.628    0.220    3.621
  366.000  118.398    0.567    0.220    3.561
  366.250  112.437    0.545    0.219    3.504
  366.500  113.719    0.539    0.218    3.509
  366.750  116.174    0.567    0.220    3.455
  367.000  118.676    0.591    0.224    3.394
  367.250  115.711    0.624    0.228    3.401
  367.500  113.349    0.569    0.231    3.347
  367.750  111.017    0.557    0.226    3.289
  368.000  107.465    0.581    0.224    3.238
  368.250  104.500    0.588    0.220    3.242
  368.500  103.357    0.585    0.243    3.249
  368.750  102.817    0.564    0.247    3.383
  369.000  101.705    0.539    0.261    3.520
  369.250  100.563    0.532    0.274    3.733
  369.500   99.420    0.548    0.255    4.113
  369.750   96.471    0.508    0.231    4.444
  370.000   93.521    0.469    0.231    4.800
  370.250   89.954    0.469    0.236    5.187
  370.500   84.580    0.472    0.232    5.938
  370.750   84.642    0.477    0.233    6.414
  371.000   93.754    0.489    0.239    6.553
  371.250   98.634    0.496    0.252    6.567
  371.500  100.503    0.510    0.259    6.455
  371.750   94.557    0.504    0.267    6.351
  372.000   91.608    0.478    0.270    6.129
  372.250   92.859    0.467    0.268    5.915
  372.500   98.959    0.465    0.263    5.708
  372.750  102.032    0.479    0.257    5.509
  373.000  106.310    0.502    0.242    5.217
  373.250  106.372    0.525    0.233    5.032
  373.500  107.052    0.545    0.232    4.589
  373.750  107.732    0.528    0.233    4.185
  374.000  107.794    0.530    0.242    3.819
  374.250  107.269    0.542    0.251    3.483
  374.500  106.095    0.605    0.258    3.178
  374.750  104.350    0.629    0.253    2.950
  375.000  101.401    0.637    0.251    2.448
  375.250  100.274    0.589    0.248    2.070
  375.500  102.745    0.570    0.247    1.685
  375.750  103.409    0.562    0.246    1.273
  376.000  104.073    0.559    0.244    0.980
  376.250  104.135    0.536    0.242    0.844
  376.500  104.197    0.504    0.242    0.625
  376.750  103.657    0.536    0.244    0.455
  377.000   99.487    0.530    0.252    0.474
  377.250   93.542    0.522    0.253    0.542
  377.500   93.002    0.520    0.252    0.791
  377.750   93.666    0.507    0.248    1.114
  378.000   94.330    0.486    0.247    2.814
  378.250   98.006    0.484    0.238    3.813
  378.500  101.079    0.515    0.239    3.968
  378.750   99.334    0.611    0.241    3.977
  379.000   97.605    0.642    0.239    3.915
  379.250   98.902    0.570    0.236    3.925
  379.500   99.520    0.518    0.233    3.930
  379.750  100.200    0.517    0.231    4.017
  380.000   97.250    0.513    0.228    4.098
  380.250   94.919    0.497    0.224    4.353
  380.500   96.170    0.491    0.222    4.438
  380.750   99.861    0.474    0.218    4.618
  381.000  101.127    0.472    0.214    4.903
  381.250  101.189    0.472    0.211    5.105
  381.500   99.444    0.473    0.208    5.207
  381.750   97.684    0.468    0.213    5.419
  382.000   93.530    0.463    0.217    5.434
  382.250   85.762    0.463    0.220    5.445
  382.500   85.237    0.479    0.223    5.454
  382.750   88.897    0.481    0.232    5.469
  383.000   96.820    0.482    0.247    5.582
  383.250   99.276    0.487    0.259    5.596
  383.500   88.481    0.475    0.271    5.715
  383.750   80.729    0.457    0.275    5.951
  384.000   81.393    0.444    0.263    6.192
  384.250   81.455    0.440    0.258    6.567
  384.500   83.926    0.438    0.268    6.968
  384.750   87.015    0.433    0.275    7.243
  385.000   88.884    0.429    0.262    7.537
  385.250   87.726    0.425    0.244    7.701
  385.500   83.572    0.422    0.230    7.718
  385.750   82.429    0.417    0.220    7.747
  386.000   81.286    0.417    0.215    7.614
  386.250   86.769    0.417    0.206    7.622
  386.500   86.846    0.407    0.201    7.643
  386.750   73.642    0.396    0.192    7.659
  387.000   68.886    0.378    0.172    7.817
  387.250   64.129    0.319    0.153    7.983
  387.500   63.589    0.322    0.118    8.631
  387.750   66.663    0.353    0.193    9.322
  388.000   75.172    0.391    0.221   10.080
  388.250   84.268    0.436    0.256    9.732
  388.500   89.164    0.440    0.262    9.566
  388.750   92.269    0.445    0.265    9.232
  389.000   93.504    0.445    0.252    8.743
  389.250   97.782    0.447    0.253    8.284
  389.500   99.064    0.452    0.263    7.555
  389.750   99.126    0.456    0.269    7.155
  390.000   99.790    0.460    0.263    6.904
  390.250   93.212    0.457    0.257    6.916
  390.500   87.266    0.457    0.248    6.804
  390.750   89.722    0.468    0.241    6.692
  391.000   89.181    0.481    0.230    6.341
  391.250   91.683    0.493    0.231    6.112
  391.500   94.139    0.516    0.238    5.574
  391.750   97.815    0.516    0.244    5.279
  392.000   96.688    0.505    0.250    4.909
  392.250   92.518    0.480    0.245    5.013
  392.500   86.557    0.461    0.231    5.319
  392.750   79.994    0.446    0.220    5.532
  393.000   84.890    0.434    0.211    5.754
  393.250   87.345    0.429    0.212    6.221
  393.500   91.021    0.435    0.221    6.597
  393.750   94.712    0.443    0.231    6.996
  394.000   94.774    0.459    0.238    7.560
  394.250   95.454    0.459    0.240    7.720
  394.500   96.705    0.436    0.240    7.179
  394.750   99.794    0.435    0.241    6.928
  395.000  102.249    0.442    0.244    6.557
  395.250  100.505    0.450    0.243    6.331
  395.500   99.980    0.458    0.237    6.226
  395.750  100.057    0.459    0.228    6.236
  396.000  101.324    0.448    0.222    6.376
  396.250  101.386    0.439    0.230    6.382
  396.500   97.818    0.428    0.234    6.521
  396.750   92.460    0.419    0.224    6.786
  397.000   91.935    0.424    0.208    7.196
  397.250   98.004    0.420    0.196    7.777
  397.500   95.055    0.405    0.184    8.408
  397.750   93.928    0.394    0.166    8.912
  398.000   96.986    0.401    0.158    8.941
  398.250   97.665    0.411    0.177    8.955
  398.500   97.140    0.424    0.192    8.979
  398.750   96.585    0.437    0.207    8.670
  399.000   96.677    0.432    0.219    8.210
  399.250   96.724    0.417    0.227    8.066
  399.500   97.388    0.412    0.232    7.638
  399.750   98.639    0.409    0.234    7.512
  400.000  100.524    0.432    0.233    7.257
  400.250  101.790    0.446    0.229    7.133
