~VERSION INFORMATION
 VERS.                 2.0:   CWLS LOG ASCII STANDARD -VERSION 2.0
 WRAP.                  NO:   ONE LINE PER DEPTH STEP
~WELL INFORMATION BLOCK
#MNEM.UNIT           DATA                    DESCRIPTION OF MNEMONIC
#---------    -------------------            -------------------------------
# Generated from Intellog Unique Number	CW_79_81/WELL/2440
WELL.         01-08-080-21W4                 : Well_name    - WELL
LOC .         00/01-08-080-21W4/0            : Location     - LOCATION
UWI .         00/01-08-080-21W4/0            : Uwi          - UNIQUE WELL ID
ENTR.         MAX                            : Entered      - ENTERED BY
SRVC.         SCHLUMBERGER                   : Scn          - SERVICE COMPANY
STRT.M        215                            : top_depth    - START DEPTH
STOP.M        449.75                         : bot_depth    - STOP DEPTH
STEP.M        0.25                           : increment    - STEP LENGTH
 NULL. -999.2500:NULL Value
~CURVE INFORMATION BLOCK
#MNEM UNIT       ERCB CURVE CODE    CURVE DESCRIPTION
#-----------   ------------------   ----------------------------------
DEPT.M        00 001 00 00         : DEPTH        - DEPTH
ILD .OHMM     00 120 00 00         : RESD         - DEEP RESISTIVITY (DIL)
NPHI.V/V      00 330 00 00         : PHIN         - NEUTRON POROSITY (SANDSTONE)
DPHI.V/V      00 890 00 00         : PHID         - DENSITY POROSITY (SANDSTONE)
GR  .API      00 310 00 00         : GR           - GAMMA RAY
~PARAMETER INFORMATION
#MNEM.UNIT           DATA             DESCRIPTION OF MNEMONIC
#---------         -----------     ------------------------------
GL  .M        583.3                : gl           - GROUND LEVEL ELEVATION
EREF.M        587                  : kb           - ELEVATION OF DEPTH REFERENCE
DATM.M        583.3                : datum        - DATUM ELEVATION
TDD .M        507                  : tdd          - TOTAL DEPTH DRILLER
RUN .         ONE                  : Run          - RUN NUMBER
ENG .         BILL                 : Engineer     - RECORDING ENGINEER
WIT .         JIM                  : Witness      - WITNESSED BY
MUD .         GEL                  : Mud_type     - MUD TYPE
MATR.         SANDSTONE            : Logunit      - NEUTRON MATRIX
TMAX.C        23                   : BHT          - MAXIMUM RECORDED TEMPERATURE
BHTD.M        507                  : BHTDEP       - MAXIMUM RECORDED TEMPERATURE
MATR.         1                    : LOGUNIT      - NEUTRON MATRIX
RMT .C        15                   : MDTP         - TEMPERATURE OF MUD
NEUT.         1                    : NEUTRON      - NEUTRON TYPE
RESI.         0                    : RESIST       - RESISTIVITY TYPE
RMC .OHMM     2.33                 : RMC          - RESISTIVITY OF MUD CAKE
RMF .OHMM     2.19                 : RMF          - RESISTIVITY OF MUD FILTRATE
SUFT.C        -15                  : SUFT         - SURFACE TEMPERATURE
~A  DEPTH     RESD     PHIN     PHID       GR
# ...
  345.500    7.475    0.415    0.133   67.861
  345.750    7.688    0.397    0.119   67.322
  346.000    8.045    0.377    0.108   68.860
  346.250    8.465    0.363    0.101   70.858
  346.500    8.844    0.363    0.102   72.556
  346.750    9.061    0.381    0.113   73.893
  347.000    9.077    0.402    0.116   73.088
  347.250    8.943    0.420    0.116   72.504
  347.500    8.773    0.431    0.114   72.309
  347.750    8.622    0.432    0.104   71.681
  348.000    8.505    0.427    0.091   70.981
  348.250    8.402    0.420    0.082   71.872
  348.500    8.403    0.422    0.083   72.448
  348.750    8.442    0.422    0.085   72.290
  349.000    8.509    0.423    0.083   72.308
  349.250    8.605    0.424    0.075   72.504
  349.500    8.732    0.422    0.066   72.630
  349.750    8.891    0.410    0.065   72.148
  350.000    8.893    0.392    0.076   71.924
  350.250    8.788    0.387    0.078   72.477
  350.500    8.715    0.379    0.081   72.605
  350.750    8.645    0.374    0.087   72.304
  351.000    8.569    0.374    0.095   71.552
  351.250    8.502    0.379    0.105   69.773
  351.500    8.536    0.374    0.109   67.125
  351.750    8.697    0.371    0.107   64.938
  352.000    9.320    0.369    0.090   62.248
  352.250   10.221    0.349    0.067   58.892
  352.500   11.300    0.302    0.041   55.310
  352.750   12.962    0.212    0.002   52.560
  353.000   14.980    0.129   -0.043   52.642
  353.250   18.938    0.112   -0.108   57.062
  353.500   23.323    0.138   -0.123   58.449
  353.750   27.262    0.191   -0.108   58.725
  354.000   29.898    0.245   -0.078   58.580
  354.250   31.309    0.261   -0.046   57.510
  354.500   31.215    0.238   -0.031   57.690
  354.750   30.065    0.213   -0.027   59.711
  355.000   28.057    0.252   -0.010   62.405
  355.250   25.760    0.304    0.010   65.040
  355.500   22.997    0.343    0.035   67.037
  355.750   18.892    0.373    0.072   67.954
  356.000   16.455    0.379    0.083   67.889
  356.250   15.275    0.371    0.079   67.304
  356.500   14.743    0.360    0.070   66.826
  356.750   14.531    0.357    0.059   66.998
  357.000   14.469    0.362    0.054   67.880
  357.250   14.507    0.365    0.063   69.320
  357.500   14.689    0.373    0.065   70.687
  357.750   14.735    0.379    0.069   71.002
  358.000   14.548    0.384    0.074   70.927
  358.250   14.151    0.388    0.078   70.745
  358.500   13.602    0.393    0.082   70.792
  358.750   12.890    0.403    0.088   71.576
  359.000   12.486    0.400    0.093   72.176
  359.250   12.266    0.395    0.095   72.732
  359.500   12.214    0.391    0.092   73.496
  359.750   12.288    0.386    0.084   74.284
  360.000   12.445    0.379    0.070   74.943
  360.250   12.654    0.369    0.054   75.310
  360.500   12.751    0.358    0.053   75.084
  360.750   12.831    0.356    0.054   74.079
  361.000   12.796    0.382    0.059   74.102
  361.250   12.636    0.402    0.063   74.395
  361.500   12.341    0.404    0.065   74.556
  361.750   11.805    0.400    0.071   74.525
  362.000   11.313    0.402    0.079   74.458
  362.250   11.035    0.409    0.083   74.781
  362.500   10.918    0.418    0.082   74.700
  362.750   10.854    0.421    0.081   74.205
  363.000   10.815    0.418    0.080   73.466
  363.250   10.856    0.415    0.080   72.710
  363.500   10.891    0.414    0.083   72.101
  363.750   10.925    0.414    0.088   71.657
  364.000   11.052    0.414    0.094   71.709
  364.250   11.203    0.414    0.097   72.401
  364.500   11.326    0.412    0.099   73.652
  364.750   11.388    0.407    0.104   75.378
  365.000   11.355    0.409    0.101   76.494
  365.250   11.084    0.416    0.092   76.951
  365.500   10.640    0.424    0.082   76.949
  365.750   10.027    0.426    0.081   76.478
  366.000    9.363    0.421    0.091   75.638
  366.250    8.906    0.413    0.100   74.233
  366.500    9.416    0.417    0.089   72.245
  366.750   10.265    0.394    0.081   69.338
  367.000   11.351    0.351    0.070   66.466
  367.250   12.693    0.297    0.050   63.795
  367.500   14.387    0.244    0.016   61.323
  367.750   16.973    0.200   -0.047   58.915
  368.000   18.364    0.168   -0.077   59.100
  368.250   21.866    0.152   -0.088   57.192
  368.500   24.549    0.160   -0.081   56.347
  368.750   25.817    0.193   -0.057   56.236
  369.000   25.604    0.247   -0.019   56.420
  369.250   23.805    0.312    0.024   55.932
  369.500   21.442    0.326    0.028   53.813
  369.750   19.069    0.303    0.011   53.203
  370.000   17.978    0.298    0.003   54.175
  370.250   17.365    0.300    0.007   55.676
  370.500   16.797    0.307    0.025   57.273
  370.750   15.741    0.330    0.064   59.623
  371.000   14.532    0.360    0.102   61.974
  371.250   13.049    0.385    0.126   64.545
  371.500   12.144    0.395    0.130   66.360
  371.750   11.539    0.400    0.124   67.797
  372.000   11.095    0.405    0.117   69.109
  372.250   10.660    0.407    0.113   70.654
  372.500   10.272    0.408    0.107   71.823
  372.750    9.916    0.409    0.101   72.516
  373.000    9.719    0.408    0.103   72.704
  373.250    9.707    0.406    0.102   72.804
  373.500    9.828    0.402    0.095   73.266
  373.750   10.024    0.397    0.097   74.672
  374.000   10.434    0.391    0.108   75.151
  374.250   10.722    0.393    0.116   75.134
  374.500   10.846    0.400    0.118   74.938
  374.750   10.912    0.405    0.118   74.572
  375.000   10.963    0.407    0.120   74.113
  375.250   10.992    0.411    0.125   73.582
  375.500   11.130    0.411    0.128   72.970
  375.750   11.463    0.393    0.126   72.384
  376.000   11.935    0.375    0.121   72.155
  376.250   12.508    0.363    0.115   72.376
  376.500   13.126    0.363    0.108   73.040
  376.750   13.810    0.376    0.092   73.913
  377.000   14.348    0.368    0.064   73.280
  377.250   14.190    0.358    0.052   73.307
  377.500   13.937    0.358    0.047   73.652
  377.750   13.640    0.361    0.050   73.654
  378.000   13.351    0.358    0.059   73.041
  378.250   13.129    0.337    0.072   72.020
  378.500   13.139    0.304    0.071   72.465
  378.750   13.149    0.320    0.063   74.471
  379.000   13.274    0.340    0.070   74.276
  379.250   13.411    0.354    0.077   72.924
  379.500   13.506    0.358    0.075   71.003
  379.750   13.557    0.358    0.065   68.167
  380.000   13.566    0.355    0.053   65.722
  380.250   13.595    0.350    0.045   64.633
  380.500   13.673    0.352    0.038   65.865
  380.750   13.806    0.361    0.039   68.873
  381.000   13.947    0.375    0.049   72.207
  381.250   13.974    0.385    0.061   73.677
  381.500   13.854    0.385    0.069   74.496
  381.750   13.640    0.379    0.074   75.522
  382.000   13.451    0.380    0.083   76.171
  382.250   13.283    0.385    0.085   76.247
  382.500   13.091    0.390    0.078   75.926
  382.750   12.768    0.382    0.067   75.816
  383.000   12.640    0.374    0.054   76.094
  383.250   12.498    0.366    0.048   76.028
  383.500   12.318    0.361    0.048   75.495
  383.750   12.208    0.358    0.046   74.279
  384.000   12.316    0.352    0.040   72.189
  384.250   13.102    0.317    0.015   69.260
  384.500   14.374    0.261   -0.035   70.271
  384.750   15.501    0.239   -0.037   73.098
  385.000   16.258    0.249   -0.015   75.177
  385.250   16.500    0.285    0.019   76.245
  385.500   16.193    0.331    0.052   76.676
  385.750   15.209    0.372    0.065   77.690
  386.000   14.197    0.393    0.053   78.755
  386.250   13.540    0.392    0.059   77.260
  386.500   13.188    0.391    0.061   76.191
  386.750   13.025    0.391    0.058   75.741
  387.000   12.982    0.391    0.054   75.958
  387.250   13.028    0.392    0.052   76.936
  387.500   13.119    0.388    0.058   77.878
  387.750   13.130    0.385    0.062   78.499
  388.000   13.081    0.376    0.062   78.246
  388.250   12.983    0.368    0.061   77.917
  388.500   12.853    0.362    0.060   77.864
  388.750   12.680    0.360    0.056   78.090
