~VERSION INFORMATION
 VERS.                 2.0:   CWLS LOG ASCII STANDARD -VERSION 2.0
 WRAP.                  NO:   ONE LINE PER DEPTH STEP
~WELL INFORMATION BLOCK
#MNEM.UNIT           DATA                    DESCRIPTION OF MNEMONIC
#---------    -------------------            -------------------------------
# Generated from Intellog Unique Number	CW_73_75/WELL/185
WELL.         BOWTEX MARTEN HILLS 01-04      : Well_name    - WELL
LOC .         00/01-04-075-23W4/0            : Location     - LOCATION
UWI .         00/01-04-075-23W4/0            : Uwi          - UNIQUE WELL ID
ENTR.         JAYE                           : Entered      - ENTERED BY
SRVC.         WESTERN ATLAS                  : Scn          - SERVICE COMPANY
DATE.         18 MAR 88                      : Date         - LOG DATE
STRT.M        435                            : top_depth    - START DEPTH
STOP.M        640                            : bot_depth    - STOP DEPTH
STEP.M        0.25                           : increment    - STEP LENGTH
 NULL. -999.2500:NULL Value
~CURVE INFORMATION BLOCK
#MNEM UNIT       ERCB CURVE CODE    CURVE DESCRIPTION
#-----------   ------------------   ----------------------------------
DEPT.M        00 001 00 00         : DEPTH        - DEPTH
ILD .OHMM     00 120 00 00         : RESD         - DEEP RESISTIVITY (DIL)
NPHI.V/V      00 330 00 00         : PHIN         - NEUTRON POROSITY (SANDSTONE)
DPHI.V/V      00 890 00 00         : PHID         - DENSITY POROSITY (SANDSTONE)
GR  .API      00 310 00 00         : GR           - GAMMA RAY
CALI.MM       00 280 01 00         : CAL          - CALIPER
~PARAMETER INFORMATION
#MNEM.UNIT           DATA             DESCRIPTION OF MNEMONIC
#---------         -----------     ------------------------------
GL  .M        715                  : gl           - GROUND LEVEL ELEVATION
EREF.M        718.3                : kb           - ELEVATION OF DEPTH REFERENCE
DATM.M        715                  : datum        - DATUM ELEVATION
TDD .M        640                  : tdd          - TOTAL DEPTH DRILLER
RUN .         ONE                  : Run          - RUN NUMBER
ENG .         NOWAKOWSKI           : Engineer     - RECORDING ENGINEER
WIT .         NUNEZ                : Witness      - WITNESSED BY
BASE.         RDD                  : Branch       - HOME BASE OF LOGGING UNIT
MUD .         GEL CHEM             : Mud_type     - MUD TYPE
MATR.         SANDSTONE            : Logunit      - NEUTRON MATRIX
TMAX.C        30                   : BHT          - MAXIMUM RECORDED TEMPERATURE
BHTD.M        640.2                : BHTDEP       - MAXIMUM RECORDED TEMPERATURE
RMT .C        19                   : MDTP         - TEMPERATURE OF MUD
MUDD.KG/M     1150                 : MWT          - MUD DENSITY
NEUT.         1                    : NEUTRON      - NEUTRON TYPE
RESI.         0                    : RESIST       - RESISTIVITY TYPE
RM  .OHMM     3.4                  : RM           - RESISTIVITY OF MUD
RMC .OHMM     4.65                 : RMC          - RESISTIVITY OF MUD CAKE
RMF .OHMM     4.78                 : RMF          - RESISTIVITY OF MUD FILTRATE
SUFT.C        0                    : SUFT         - SURFACE TEMPERATURE
~A  DEPTH     RESD     PHIN     PHID       GR      CAL
# ...
  508.000    6.159    0.513    0.239  101.671  203.618
  508.250    6.705    0.504    0.270   89.229  203.721
  508.500    7.354    0.482    0.284   82.679  203.719
  508.750    7.991    0.466    0.294   77.824  203.926
  509.000    8.426    0.458    0.295   75.168  203.609
  509.250    8.884    0.451    0.286   77.899  203.292
  509.500    9.367    0.440    0.266   84.270  203.605
  509.750    9.513    0.420    0.227   88.695  203.707
  510.000    9.236    0.400    0.217   79.015  204.229
  510.250    8.302    0.394    0.259   73.781  204.436
  510.500    6.631    0.424    0.277   69.177  204.434
  510.750    5.688    0.461    0.291   70.344  204.222
  511.000    5.028    0.470    0.302   72.576  204.220
  511.250    4.588    0.475    0.303   71.610  204.217
  511.500    4.290    0.483    0.300   72.652  204.215
  511.750    4.149    0.471    0.299   77.262  204.423
  512.000    4.066    0.452    0.299   77.117  204.210
  512.250    4.216    0.487    0.300   73.951  204.418
  512.500    4.521    0.499    0.298   71.729  204.521
  512.750    4.885    0.491    0.289   76.721  204.413
  513.000    5.388    0.405    0.276   71.802  204.411
  513.250    6.055    0.325    0.257   61.118  205.982
  513.500    7.447    0.252    0.223   52.941  207.133
  513.750   10.078    0.175    0.089   46.392  208.285
  514.000   12.095    0.154    0.003   45.927  209.646
  514.250   10.732    0.263    0.126   49.791  210.168
  514.500    9.170    0.376    0.378   53.403  209.746
  514.750    7.108    0.486    0.395   55.443  207.751
  515.000    5.850    0.554    0.379   54.978  210.266
  515.250    5.210    0.547    0.368   56.775  211.836
  515.500    5.144    0.526    0.350   58.564  211.939
  515.750    5.080    0.504    0.338   58.478  210.888
  516.000    4.876    0.479    0.335   63.404  209.523
  516.250    4.664    0.459    0.332   72.908  206.583
  516.500    4.418    0.469    0.326   78.401  205.218
  516.750    4.147    0.484    0.323   76.117  204.691
  517.000    3.974    0.481    0.323   76.409  204.689
  517.250    3.961    0.468    0.320   74.184  204.687
  517.500    4.030    0.441    0.314   67.072  204.685
  517.750    4.085    0.423    0.304   66.736  204.368
  518.000    4.149    0.405    0.296   69.844  204.051
  518.250    4.190    0.437    0.290   74.145  203.629
  518.500    4.231    0.492    0.288   76.876  203.417
  518.750    4.273    0.492    0.293   79.361  203.414
  519.000    4.291    0.473    0.292   74.005  203.202
  519.250    4.293    0.457    0.289   75.043  203.200
  519.500    4.303    0.445    0.282   82.857  203.512
  519.750    4.288    0.464    0.275   77.500  203.824
  520.000    4.323    0.494    0.277   75.721  204.137
  520.250    4.390    0.505    0.279   80.143  204.135
  520.500    4.620    0.491    0.279   80.933  204.027
  520.750    4.917    0.470    0.280   69.558  204.340
  521.000    5.444    0.447    0.269   68.905  205.072
  521.250    6.223    0.409    0.221   79.726  206.328
  521.500    7.289    0.305    0.155   76.817  207.689
  521.750    8.425    0.284    0.110   77.731  208.735
  522.000    8.768    0.325    0.130   82.847  209.886
  522.250    8.888    0.321    0.119   82.444  209.884
  522.500    8.264    0.272    0.109   81.982  208.309
  522.750    6.853    0.344    0.186   93.366  205.999
  523.000    5.879    0.421    0.242  105.193  205.368
  523.250    5.304    0.462    0.281  108.113  205.261
  523.500    4.759    0.478    0.284   96.112  205.153
  523.750    4.501    0.455    0.287   84.987  204.942
  524.000    4.411    0.425    0.293   78.627  203.995
  524.250    4.413    0.403    0.303   82.305  203.469
  524.500    4.448    0.399    0.293   87.605  203.676
  524.750    4.467    0.445    0.221   92.410  206.191
  525.000    4.477    0.504    0.202   94.701  210.803
  525.250    4.504    0.478    0.220   98.251  213.527
  525.500    4.549    0.444    0.230  101.801  215.308
  525.750    4.620    0.439    0.213  104.784  214.047
  526.000    4.648    0.451    0.195  108.583  211.633
  526.250    4.676    0.438    0.194  113.132  212.469
  526.500    4.713    0.446    0.202  110.411  213.411
  526.750    4.725    0.475    0.210  106.873  213.618
  527.000    4.717    0.499    0.224  108.791  213.511
  527.250    4.720    0.512    0.218  113.091  213.089
  527.500    4.757    0.501    0.209  108.426  212.563
  527.750    4.777    0.457    0.207  100.686  212.456
  528.000    4.815    0.457    0.205  102.229  214.865
  528.250    4.881    0.504    0.205  107.282  216.646
  528.500    5.013    0.545    0.205  113.464  214.127
  528.750    5.949    0.535    0.213  121.466  211.817
  529.000    7.358    0.396    0.215  103.441  207.620
  529.250    8.781    0.325    0.043   93.135  204.996
  529.500    9.329    0.213    0.022   80.252  208.245
  529.750    8.773    0.222    0.068   78.281  207.823
  530.000    7.625    0.263    0.134   81.267  206.143
  530.250    6.564    0.310    0.184   87.448  204.881
  530.500    5.727    0.426    0.222   93.507  204.250
  530.750    5.345    0.428    0.242   95.736  203.514
  531.000    5.179    0.432    0.248   90.253  203.302
  531.250    5.554    0.461    0.244   89.228  203.195
  531.500    6.126    0.450    0.224   88.195  203.087
  531.750    6.607    0.395    0.204   85.601  203.190
  532.000    7.045    0.363    0.192   79.427  203.292
  532.250    6.943    0.377    0.198   83.352  203.185
  532.500    6.384    0.425    0.222   84.705  202.763
  532.750    5.880    0.406    0.238   79.165  202.761
  533.000    5.468    0.404    0.247   86.349  202.340
  533.250    5.239    0.463    0.236   93.283  202.547
  533.500    5.291    0.448    0.222   98.587  203.593
  533.750    5.579    0.458    0.208  103.953  208.730
  534.000    5.860    0.445    0.194  106.438  210.825
  534.250    5.985    0.416    0.194  106.098  211.662
  534.500    5.999    0.377    0.194  104.943  211.554
  534.750    5.912    0.354    0.194  105.421  210.923
  535.000    5.729    0.439    0.197  106.521  210.082
  535.250    5.572    0.440    0.223  104.740  209.240
  535.500    5.420    0.399    0.232  100.196  209.762
  535.750    5.252    0.372    0.229  102.179  210.389
  536.000    5.109    0.443    0.215   98.451  210.177
  536.250    5.026    0.511    0.215   89.461  209.965
  536.500    4.990    0.502    0.231   95.769  209.648
  536.750    4.927    0.478    0.232  101.949  208.912
  537.000    4.829    0.467    0.240  104.556  208.700
  537.250    4.723    0.463    0.267   97.635  208.383
  537.500    4.716    0.484    0.262   98.422  208.066
  537.750    4.955    0.508    0.256   96.201  207.539
  538.000    5.205    0.517    0.256   93.353  207.327
  538.250    5.540    0.493    0.248   97.594  206.591
  538.500    6.041    0.465    0.237   92.989  205.645
  538.750    6.664    0.438    0.227   84.499  203.440
  539.000    7.531    0.411    0.219   84.534  203.018
  539.250    8.292    0.391    0.208   87.893  204.169
  539.500    8.437    0.374    0.195   92.070  207.523
  539.750    8.175    0.355    0.179   89.913  210.143
  540.000    7.834    0.389    0.222   88.066  209.825
  540.250    8.000    0.455    0.199   88.919  209.509
  540.500    8.232    0.382    0.116   89.019  209.087
  540.750    8.455    0.294    0.071   84.353  209.399
  541.000    8.652    0.319    0.107   85.082  209.712
  541.250    8.542    0.373    0.176   89.755  209.709
  541.500    8.216    0.390    0.218   96.689  209.497
  541.750    7.668    0.361    0.199   94.660  209.390
  542.000    7.064    0.415    0.192   90.931  208.549
  542.250    6.314    0.438    0.234   96.740  205.086
  542.500    5.719    0.420    0.233   96.712  203.301
  542.750    5.469    0.393    0.224   92.861  206.445
  543.000    5.340    0.497    0.232   98.169  208.854
  543.250    5.373    0.507    0.235  102.340  210.006
  543.500    5.477    0.486    0.224  106.328  211.052
  543.750    5.572    0.464    0.222  103.482  210.526
  544.000    5.659    0.441    0.217  104.896  209.684
  544.250    5.705    0.422    0.210  108.947  212.304
