~VERSION INFORMATION
 VERS.                 2.0:   CWLS LOG ASCII STANDARD -VERSION 2.0
 WRAP.                  NO:   ONE LINE PER DEPTH STEP
~WELL INFORMATION BLOCK
#MNEM.UNIT           DATA                    DESCRIPTION OF MNEMONIC
#---------    -------------------            -------------------------------
# Generated from Intellog Unique Number	CW_76_78/WELL/2562
WELL.         BARNWELL ET AL MCMULLEN        : Well_name    - WELL
LOC .         00/01-10-078-26W4/0            : Location     - LOCATION
UWI .         00/01-10-078-26W4/0            : Uwi          - UNIQUE WELL ID
ENTR.         MAX                            : Entered      - ENTERED BY
SRVC.         COMPUTALOG                     : Scn          - SERVICE COMPANY
STRT.M        320                            : top_depth    - START DEPTH
STOP.M        560                            : bot_depth    - STOP DEPTH
STEP.M        0.25                           : increment    - STEP LENGTH
 NULL. -999.2500:NULL Value
~CURVE INFORMATION BLOCK
#MNEM UNIT       ERCB CURVE CODE    CURVE DESCRIPTION
#-----------   ------------------   ----------------------------------
DEPT.M        00 001 00 00         : DEPTH        - DEPTH
GR  .API      00 310 00 00         : GR           - GAMMA RAY
ILD .OHMM     00 120 00 00         : RESD         - DEEP RESISTIVITY (DIL)
NPHI.V/V      00 330 00 00         : PHIN         - NEUTRON POROSITY (SANDSTONE)
DPHI.V/V      00 890 00 00         : PHID         - DENSITY POROSITY (SANDSTONE)
CALI.MM       00 280 01 00         : CAL          - CALIPER
~PARAMETER INFORMATION
#MNEM.UNIT           DATA             DESCRIPTION OF MNEMONIC
#---------         -----------     ------------------------------
GL  .M        610.3                : gl           - GROUND LEVEL ELEVATION
EREF.M        613.8                : kb           - ELEVATION OF DEPTH REFERENCE
DATM.M        610.3                : datum        - DATUM ELEVATION
TDD .M        561                  : tdd          - TOTAL DEPTH DRILLER
RUN .         ONE                  : Run          - RUN NUMBER
ENG .         BILL                 : Engineer     - RECORDING ENGINEER
WIT .         JIM                  : Witness      - WITNESSED BY
MUD .         GEL                  : Mud_type     - MUD TYPE
MATR.         SANDSTONE            : Logunit      - NEUTRON MATRIX
TMAX.C        26                   : BHT          - MAXIMUM RECORDED TEMPERATURE
BHTD.M        561                  : BHTDEP       - MAXIMUM RECORDED TEMPERATURE
RMT .C        21                   : MDTP         - TEMPERATURE OF MUD
MUDD.KG/M     1160                 : MWT          - MUD DENSITY
NEUT.         1                    : NEUTRON      - NEUTRON TYPE
RESI.         0                    : RESIST       - RESISTIVITY TYPE
RM  .OHMM     3.7                  : RM           - RESISTIVITY OF MUD
RMC .OHMM     2.4                  : RMC          - RESISTIVITY OF MUD CAKE
RMF .OHMM     3.5                  : RMF          - RESISTIVITY OF MUD FILTRATE
SUFT.C        -10                  : SUFT         - SURFACE TEMPERATURE
~A  DEPTH       GR     RESD     PHIN     PHID      CAL
# ...
  466.000  108.248   13.103    0.389    0.203  169.270
  466.250  108.528   13.095    0.400    0.205  167.717
  466.500  105.172   13.088    0.404    0.203  166.168
  466.750  104.847   13.081    0.388    0.215  164.615
  467.000  103.308   13.198    0.376    0.202  164.061
  467.250  101.465   13.189    0.375    0.186  165.552
  467.500  103.868   13.183    0.393    0.172  169.562
  467.750  105.972   13.052    0.406    0.173  171.049
  468.000  104.436   12.684    0.410    0.183  170.504
  468.250  104.108   12.443    0.412    0.211  169.457
  468.500  104.697   12.206    0.408    0.195  168.920
  468.750  105.888   11.861    0.384    0.188  170.905
  469.000  103.742   11.635    0.367    0.192  171.882
  469.250  103.417   11.414    0.379    0.196  170.835
  469.500  103.700   11.195    0.391    0.187  170.285
  469.750  105.197   11.085    0.398    0.192  170.250
  470.000  107.906   11.079    0.402    0.191  170.725
  470.250  107.278   11.281    0.403    0.196  171.192
  470.500  103.611   11.597    0.398    0.199  171.131
  470.750  102.681   12.143    0.377    0.198  171.628
  471.000  103.571   12.252    0.372    0.187  171.593
  471.250  105.676   12.245    0.378    0.178  171.558
  471.500  110.510   11.900    0.391    0.178  171.528
  471.750  112.918   11.456    0.397    0.191  171.492
  472.000  110.471   11.030    0.398    0.193  170.441
  472.250  113.180   10.422    0.385    0.185  169.394
  472.500  113.766   10.033    0.380    0.180  167.330
  472.750  111.314    9.936    0.373    0.184  166.780
  473.000  108.254    9.926    0.368    0.183  167.260
  473.250  108.541   10.018    0.371    0.174  167.229
  473.500  111.251   10.201    0.368    0.169  167.190
  473.750  110.923   10.583    0.357    0.172  167.151
  474.000  107.256   11.084    0.350    0.175  165.597
  474.250  106.329   11.826    0.352    0.173  162.020
  474.500  106.612   12.272    0.359    0.160  160.968
  474.750  106.285   12.731    0.363    0.152  162.962
  475.000  105.659   12.488    0.369    0.158  166.976
  475.250  105.942   11.800    0.380    0.171  164.916
  475.500  106.826   10.943    0.387    0.170  160.828
  475.750  115.307   10.342    0.383    0.144  162.813
  476.000  119.846    9.681    0.423    0.151  168.349
  476.250  124.074    9.320    0.437    0.173  172.363
  476.500  115.852    9.143    0.432    0.177  173.345
  476.750  111.886    9.137    0.407    0.171  172.795
  477.000  111.561    9.137    0.403    0.165  171.246
  477.250  113.666    9.212    0.401    0.175  170.700
  477.500  115.768    9.740    0.389    0.179  172.179
  477.750  112.710   10.296    0.380    0.179  173.658
  478.000  108.438   11.404    0.374    0.176  172.620
  478.250  103.255   12.871    0.384    0.171  171.577
  478.500   92.300   15.508    0.384    0.126  172.550
  478.750   87.722   16.705    0.357    0.107  173.522
  479.000   87.400   19.030    0.359    0.161  173.993
  479.250   83.733   22.506    0.348    0.168  172.942
  479.500   84.617   26.123    0.336    0.137  171.895
  479.750   89.154   27.875    0.353    0.177  171.354
  480.000   88.219   28.652    0.377    0.236  171.829
  480.250   87.287   28.104    0.380    0.239  172.806
  480.500   88.787   26.806    0.380    0.215  173.277
  480.750   88.465   24.173    0.374    0.193  173.242
  481.000   89.355   21.798    0.351    0.157  173.199
  481.250  107.249   19.114    0.322    0.139  173.168
  481.500  119.677   16.759    0.359    0.168  172.121
  481.750  111.759   14.971    0.352    0.155  170.053
  482.000   98.377   14.279    0.319    0.129  167.998
  482.250   94.713   13.877    0.352    0.119  166.445
  482.500  100.762   13.486    0.373    0.176  166.445
  482.750  101.655   12.863    0.380    0.200  165.358
  483.000  101.937   12.384    0.378    0.202  164.817
  483.250  101.301   12.492    0.379    0.196  164.756
  483.500  100.071   12.842    0.380    0.182  165.249
  483.750   97.013   13.830    0.374    0.157  165.724
  484.000   93.042   14.757    0.362    0.146  167.713
  484.250   91.804   15.028    0.364    0.155  171.731
  484.500   94.212   15.021    0.371    0.178  173.206
  484.750   99.963   14.595    0.384    0.193  172.669
  485.000  106.015   13.409    0.387    0.190  171.618
  485.250  109.941   12.791    0.375    0.170  171.081
  485.500  107.491   12.548    0.372    0.161  171.041
  485.750  105.646   12.658    0.383    0.183  171.011
  486.000  105.931   13.132    0.385    0.188  170.976
  486.250  106.816   13.373    0.366    0.174  168.912
  486.500  107.404   13.491    0.370    0.169  167.355
  486.750  108.289   13.358    0.384    0.172  168.327
  487.000  106.449   13.103    0.398    0.173  170.831
  487.250  105.823   12.735    0.400    0.168  170.792
  487.500  105.192   12.605    0.387    0.160  170.757
  487.750  102.745   12.026    0.380    0.161  170.726
  488.000  105.150   11.471    0.387    0.171  171.184
  488.250  109.990   10.940    0.392    0.157  173.169
  488.500  109.663   10.633    0.385    0.139  173.649
  488.750  104.480   10.430    0.375    0.125  172.602
  489.000  107.799   10.326    0.378    0.137  169.530
  489.250  110.812   10.417    0.382    0.162  167.475
  489.500  110.794   10.417    0.382    0.177  167.933
  489.750  109.553   10.504    0.379    0.171  169.923
  490.000  109.231   10.597    0.365    0.158  169.896
  490.250  110.121   10.591    0.362    0.164  167.327
  490.500  111.919   10.486    0.351    0.172  165.263
  490.750  114.021   10.286    0.367    0.170  166.755
  491.000  116.128   10.280    0.376    0.163  172.278
  491.250  113.377   10.275    0.369    0.142  173.260
  491.500  108.191   10.464    0.366    0.124  171.706
  491.750  109.686   10.655    0.375    0.155  167.623
  492.000  111.793   10.748    0.380    0.146  164.551
  492.250  108.429   10.642    0.384    0.133  162.989
  492.500  109.322   10.538    0.388    0.140  163.962
  492.750  112.939   10.241    0.392    0.160  164.948
  493.000  111.402   10.045    0.390    0.162  165.419
  493.250  106.217    9.947    0.390    0.162  165.890
  493.500  104.377    9.947    0.384    0.167  165.851
  493.750  113.769    9.936    0.372    0.173  165.820
  494.000  114.659    9.930    0.370    0.169  165.781
  494.250  114.635   10.111    0.376    0.157  166.247
  494.500  114.009   10.789    0.391    0.168  168.738
  494.750  104.269   12.178    0.393    0.157  170.736
  495.000   88.459   14.135    0.351    0.123  171.203
  495.250   83.574   15.512    0.307    0.096  171.203
  495.500   85.074   17.180    0.287    0.134  170.627
  495.750   92.037   17.994    0.312    0.173  169.575
  496.000  100.816   18.153    0.343    0.205  170.051
  496.250   99.277   18.484    0.358    0.189  171.534
  496.500   96.832   19.180    0.370    0.169  168.960
  496.750   90.432   20.850    0.360    0.133  168.423
  497.000   77.050   23.315    0.311    0.111  168.899
  497.250   73.386   27.830    0.286    0.085  170.378
  497.500   71.543   28.877    0.282    0.082  171.848
  497.750   73.344   30.526    0.284    0.097  171.821
  498.000   75.445   32.569    0.257    0.090  170.774
  498.250   61.457   33.167    0.254    0.074  169.727
  498.500   59.308   31.933    0.296    0.101  169.692
  498.750   60.805   29.337    0.299    0.117  170.669
  499.000   66.859   26.212    0.292    0.101  171.642
  499.250   83.539   19.422    0.297    0.089  172.623
  499.500   97.787   17.514    0.320    0.118  174.608
  499.750  102.930   13.598    0.344    0.162  174.578
  500.000  103.820   12.378    0.361    0.177  173.024
  500.250   98.030   11.588    0.367    0.140  170.965
  500.500   97.090   11.580    0.366    0.125  168.387
  500.750  101.629   11.794    0.360    0.129  169.874
  501.000  100.393   12.122    0.343    0.114  173.377
  501.250   99.459   12.229    0.351    0.109  174.355
  501.500  103.388   11.996    0.362    0.159  173.822
  501.750  108.827   11.548    0.361    0.178  173.277
  502.000  108.508   11.119    0.345    0.176  174.254
  502.250  113.345   10.806    0.347    0.166  176.243
