~VERSION INFORMATION
 VERS.                 2.0:   CWLS LOG ASCII STANDARD -VERSION 2.0
 WRAP.                  NO:   ONE LINE PER DEPTH STEP
~WELL INFORMATION BLOCK
#MNEM.UNIT           DATA                    DESCRIPTION OF MNEMONIC
#---------    -------------------            -------------------------------
# Generated from Intellog Unique Number	CN_94_101/WELL/3431
WELL.         PARMOUNT RES                   : Well_name    - WELL
LOC .         01-01-095-19W4                 : Location     - LOCATION
UWI .         00/01-01-095-19W4/0            : Uwi          - UNIQUE WELL ID
ENTR.         T                              : Entered      - ENTERED BY
SRVC.         SCHLUMBERGER                   : Scn          - SERVICE COMPANY
DATE.         07/22/92                       : Date         - LOG DATE
STRT.M        200                            : top_depth    - START DEPTH
STOP.M        374.75                         : bot_depth    - STOP DEPTH
STEP.M        0.25                           : increment    - STEP LENGTH
 NULL. -999.2500:NULL Value
~CURVE INFORMATION BLOCK
#MNEM UNIT       ERCB CURVE CODE    CURVE DESCRIPTION
#-----------   ------------------   ----------------------------------
DEPT.M        00 001 00 00         : DEPTH        - DEPTH
GR  .API      00 310 00 00         : GR           - GAMMA RAY
CALI.MM       00 280 01 00         : CAL          - CALIPER
NPHI.V/V      00 330 00 00         : PHIN         - NEUTRON POROSITY (SANDSTONE)
DPHI.V/V      00 890 00 00         : PHID         - DENSITY POROSITY (SANDSTONE)
ILD .OHMM     00 120 00 00         : RESD         - DEEP RESISTIVITY (DIL)
~PARAMETER INFORMATION
#MNEM.UNIT           DATA             DESCRIPTION OF MNEMONIC
#---------         -----------     ------------------------------
GL  .M        646.8                : gl           - GROUND LEVEL ELEVATION
EREF.M        650.2                : kb           - ELEVATION OF DEPTH REFERENCE
DATM.M        650.2                : datum        - DATUM ELEVATION
TDD .M        387.5                : tdd          - TOTAL DEPTH DRILLER
RUN .         0.000000             : Run          - RUN NUMBER
MUD .         GEL                  : Mud_type     - MUD TYPE
MATR.         SANDSTONE            : Logunit      - NEUTRON MATRIX
TMAX.C        41                   : BHT          - MAXIMUM RECORDED TEMPERATURE
BHTD.M        387.5                : BHTDEP       - MAXIMUM RECORDED TEMPERATURE
RMT .C        17                   : MDTP         - TEMPERATURE OF MUD
MUDD.KG/M     1120                 : MWT          - MUD DENSITY
NEUT.         1                    : NEUTRON      - NEUTRON TYPE
RESI.         0                    : RESIST       - RESISTIVITY TYPE
RM  .OHMM     5.88                 : RM           - RESISTIVITY OF MUD
RMC .OHMM     6.6                  : RMC          - RESISTIVITY OF MUD CAKE
RMF .OHMM     6.6                  : RMF          - RESISTIVITY OF MUD FILTRATE
SUFT.C        4                    : SUFT         - SURFACE TEMPERATURE
~A  DEPTH       GR      CAL     PHIN     PHID     RESD
# ...
  273.000  119.502  178.942    0.500    0.200    3.245
  273.250  116.390  177.905    0.509    0.188    3.308
  273.500  116.390  177.905    0.519    0.176    3.438
  273.750  115.768  176.867    0.533    0.179    3.573
  274.000  114.523  177.905    0.534    0.200    3.643
  274.250  113.900  177.905    0.508    0.213    3.714
  274.500  113.900  177.905    0.498    0.224    3.438
  274.750  112.033  178.942    0.513    0.238    3.245
  275.000  110.788  177.905    0.544    0.263    3.122
  275.250  107.054  175.830    0.553    0.279    2.890
  275.500  106.432  172.718    0.556    0.286    2.675
  275.750  108.299  171.680    0.544    0.286    2.727
  276.000  104.564  171.680    0.481    0.281    2.727
  276.250   93.983  171.680    0.436    0.290    2.890
  276.500   80.290  171.680    0.446    0.314    3.438
  276.750   67.220  171.680    0.450    0.316    3.935
  277.000   63.485  171.680    0.421    0.304    5.156
  277.250   64.730  172.718    0.415    0.299    6.886
  277.500   70.332  173.755    0.390    0.300    8.352
  277.750   73.444  174.793    0.395    0.289    8.681
  278.000   72.822  174.793    0.406    0.264    9.198
  278.250   71.577  175.830    0.418    0.228    9.746
  278.500   70.332  176.867    0.421    0.249   10.260
  278.750   67.220  177.905    0.416    0.286   10.870
  279.000   66.598  177.905    0.404    0.336   11.296
  279.250   69.710  178.942    0.410    0.323   11.967
  279.500   75.934  179.979    0.416    0.301   12.437
  279.750   83.402  181.017    0.415    0.288   12.925
  280.000   86.515  181.017    0.411    0.264   11.155
  280.250   89.004  182.054    0.409    0.258    9.560
  280.500   90.871  183.091    0.414    0.255    8.515
  280.750   92.739  183.091    0.419    0.246    7.297
  281.000   95.228  179.979    0.416    0.245    6.755
  281.250   95.228  178.942    0.421    0.264    6.016
  281.500   89.004  177.905    0.424    0.270    5.359
  281.750   85.270  177.905    0.415    0.270    5.256
  282.000   88.382  176.867    0.410    0.261    5.334
  282.250   91.494  175.830    0.415    0.241    5.232
  282.500  102.075  174.793    0.420    0.241    5.232
  282.750  104.564  173.755    0.464    0.263    4.661
  283.000  104.564  173.755    0.463    0.269    4.752
  283.250  100.207  173.755    0.439    0.274    4.752
  283.500   91.494  173.755    0.411    0.285    5.232
  283.750   89.004  173.755    0.410    0.301    6.221
  284.000   85.270  173.755    0.408    0.303    7.256
  284.250   79.046  173.755    0.388    0.271    9.684
  284.500   66.598  173.755    0.368    0.189   14.506
  284.750   56.639  173.755    0.378    0.179   14.506
  285.000   58.506  173.755    0.419    0.218   14.900
  285.250   65.975  173.755    0.419    0.314   15.788
  285.500   69.087  173.755    0.424    0.314   15.076
  285.750   71.577  173.755    0.450    0.300   13.432
  286.000   77.801  173.755    0.473    0.291   11.081
  286.250   88.382  173.755    0.475    0.285    6.103
  286.500   90.871  172.718    0.478    0.279    4.752
  286.750   93.983  172.718    0.476    0.276    3.630
  287.000   97.095  172.718    0.470    0.275    3.053
  287.250   96.473  171.680    0.464    0.266    3.053
  287.500   93.361  172.718    0.480    0.259    3.172
  287.750   91.494  172.718    0.503    0.249    3.426
  288.000   95.228  171.680    0.509    0.243    3.700
  288.250   97.095  171.680    0.486    0.239    3.846
  288.500   97.718  171.680    0.479    0.243    4.074
  288.750   99.585  171.680    0.479    0.253    4.234
  289.000   98.963  172.718    0.478    0.259    4.485
  289.250   98.963  173.755    0.470    0.261    4.642
  289.500   97.718  173.755    0.475    0.259    4.467
  289.750   93.361  174.793    0.479    0.264    4.467
  290.000   90.249  175.830    0.484    0.275    4.661
  290.250   90.249  176.867    0.481    0.278    4.844
  290.500   90.871  176.867    0.454    0.274    5.034
  290.750   90.871  177.905    0.435    0.270    5.437
  291.000   91.494  178.942    0.420    0.266    5.872
  291.250   88.382  178.942    0.421    0.253    6.103
  291.500   87.137  178.942    0.423    0.246    6.221
  291.750   90.249  178.942    0.401    0.245    6.342
  292.000   92.116  178.942    0.395    0.250    6.465
  292.250   89.627  177.905    0.421    0.244    6.719
  292.500   87.759  175.830    0.456    0.220    7.397
  292.750   85.270  173.755    0.453    0.233    7.943
  293.000   82.158  173.755    0.449    0.243    8.577
  293.250   80.913  173.755    0.450    0.246    8.577
  293.500   88.382  173.755    0.450    0.245    8.577
  293.750   81.535  174.793    0.450    0.253    8.414
  294.000   84.025  175.830    0.449    0.264    8.254
  294.250   87.137  174.793    0.424    0.275    8.097
  294.500   87.137  174.793    0.424    0.295    8.097
  294.750   80.290  174.793    0.418    0.299    7.943
  295.000   77.178  175.830    0.425    0.299    7.837
  295.250   80.913  177.905    0.429    0.278    7.688
  295.500   86.515  176.867    0.411    0.266    7.688
  295.750   89.004  175.830    0.416    0.266    7.118
  296.000   90.249  175.830    0.421    0.266    6.591
  296.250   90.871  174.793    0.443    0.264    6.190
  296.500   89.627  174.793    0.450    0.268    5.843
  296.750   85.892  174.793    0.443    0.264    5.517
  297.000   89.004  174.793    0.449    0.256    5.309
  297.250   91.494  174.793    0.476    0.263    4.917
  297.500  102.075  174.793    0.525    0.268    4.217
  297.750  105.809  172.718    0.524    0.269    3.831
  298.000  104.564  172.718    0.511    0.276    3.548
  298.250  102.075  171.680    0.509    0.280    3.286
  298.500  101.452  173.755    0.501    0.283    3.043
  298.750   97.718  173.755    0.480    0.289    3.350
  299.000   92.739  176.867    0.475    0.300    3.905
  299.250   80.913  176.867    0.484    0.303    4.467
  299.500   77.178  174.793    0.485    0.301    6.556
  299.750   75.311  174.793    0.469    0.288    8.254
  300.000   72.822  174.793    0.431    0.289   11.438
  300.250   70.332  174.793    0.429    0.303   14.678
  300.500   71.577  175.830    0.450    0.298   12.833
  300.750   74.689  176.867    0.431    0.280   11.220
  301.000   77.178  175.830    0.430    0.284    9.810
  301.250   79.046  177.905    0.440    0.286    8.577
  301.500   81.535  176.867    0.453    0.293    7.499
  301.750   84.025  175.830    0.459    0.296    6.556
  302.000   86.515  181.017    0.469    0.293    5.843
  302.250   87.137  182.054    0.474    0.290    5.412
  302.500   87.759  183.091    0.450    0.283    5.208
  302.750   86.515  159.232    0.440    0.270    5.109
  303.000   87.137  159.232    0.460    0.274    5.109
  303.250   85.270  188.278    0.458    0.296    5.309
  303.500   84.025  185.166    0.451    0.304    5.843
  303.750   82.158  177.905    0.430    0.278    6.072
  304.000   77.801  177.905    0.384    0.163    8.913
  304.250   74.689  176.867    0.273    0.114   12.833
  304.500   66.598  176.867    0.245    0.024   19.573
  304.750   66.598  171.680    0.254    0.106   19.573
  305.000   73.444  176.867    0.299    0.179   14.125
  305.250   81.535  178.942    0.331    0.225   10.391
  305.500   90.871  178.942    0.420    0.235    7.217
  305.750   94.606  178.942    0.431    0.243    6.945
  306.000   95.228  176.867    0.430    0.249    6.683
  306.250   96.473  178.942    0.426    0.253    6.683
  306.500   95.228  161.307    0.425    0.255    6.556
  306.750   95.228  176.867    0.421    0.256    6.556
  307.000   91.494  177.905    0.424    0.259    6.556
  307.250   90.871  174.793    0.428    0.258    6.072
  307.500   92.739  175.830    0.430    0.251    5.732
  307.750   93.983  173.755    0.430    0.244    5.517
  308.000   94.606  175.830    0.435    0.240    5.208
  308.250   95.851  173.755    0.439    0.234    5.012
  308.500   94.606  160.270    0.445    0.229    4.642
  308.750   92.116  160.270    0.451    0.228    4.382
  309.000   95.228  178.942    0.455    0.226    4.217
  309.250   99.585  182.054    0.466    0.226    4.058
