~VERSION INFORMATION
 VERS.                 2.0:   CWLS LOG ASCII STANDARD -VERSION 2.0
 WRAP.                  NO:   ONE LINE PER DEPTH STEP
~WELL INFORMATION BLOCK
#MNEM.UNIT           DATA                    DESCRIPTION OF MNEMONIC
#---------    -------------------            -------------------------------
# Generated from Intellog Unique Number	CW_76_78/WELL/2562
WELL.         BARNWELL ET AL MCMULLEN        : Well_name    - WELL
LOC .         00/01-10-078-26W4/0            : Location     - LOCATION
UWI .         00/01-10-078-26W4/0            : Uwi          - UNIQUE WELL ID
ENTR.         MAX                            : Entered      - ENTERED BY
SRVC.         COMPUTALOG                     : Scn          - SERVICE COMPANY
STRT.M        320                            : top_depth    - START DEPTH
STOP.M        560                            : bot_depth    - STOP DEPTH
STEP.M        0.25                           : increment    - STEP LENGTH
 NULL. -999.2500:NULL Value
~CURVE INFORMATION BLOCK
#MNEM UNIT       ERCB CURVE CODE    CURVE DESCRIPTION
#-----------   ------------------   ----------------------------------
DEPT.M        00 001 00 00         : DEPTH        - DEPTH
GR  .API      00 310 00 00         : GR           - GAMMA RAY
ILD .OHMM     00 120 00 00         : RESD         - DEEP RESISTIVITY (DIL)
NPHI.V/V      00 330 00 00         : PHIN         - NEUTRON POROSITY (SANDSTONE)
DPHI.V/V      00 890 00 00         : PHID         - DENSITY POROSITY (SANDSTONE)
CALI.MM       00 280 01 00         : CAL          - CALIPER
~PARAMETER INFORMATION
#MNEM.UNIT           DATA             DESCRIPTION OF MNEMONIC
#---------         -----------     ------------------------------
GL  .M        610.3                : gl           - GROUND LEVEL ELEVATION
EREF.M        613.8                : kb           - ELEVATION OF DEPTH REFERENCE
DATM.M        610.3                : datum        - DATUM ELEVATION
TDD .M        561                  : tdd          - TOTAL DEPTH DRILLER
RUN .         ONE                  : Run          - RUN NUMBER
ENG .         BILL                 : Engineer     - RECORDING ENGINEER
WIT .         JIM                  : Witness      - WITNESSED BY
MUD .         GEL                  : Mud_type     - MUD TYPE
MATR.         SANDSTONE            : Logunit      - NEUTRON MATRIX
TMAX.C        26                   : BHT          - MAXIMUM RECORDED TEMPERATURE
BHTD.M        561                  : BHTDEP       - MAXIMUM RECORDED TEMPERATURE
RMT .C        21                   : MDTP         - TEMPERATURE OF MUD
MUDD.KG/M     1160                 : MWT          - MUD DENSITY
NEUT.         1                    : NEUTRON      - NEUTRON TYPE
RESI.         0                    : RESIST       - RESISTIVITY TYPE
RM  .OHMM     3.7                  : RM           - RESISTIVITY OF MUD
RMC .OHMM     2.4                  : RMC          - RESISTIVITY OF MUD CAKE
RMF .OHMM     3.5                  : RMF          - RESISTIVITY OF MUD FILTRATE
SUFT.C        -10                  : SUFT         - SURFACE TEMPERATURE
~A  DEPTH       GR     RESD     PHIN     PHID      CAL
# ...
  502.500  119.093   10.806    0.352    0.164  175.698
  502.750  122.716   10.790    0.357    0.161  174.144
  503.000  125.428   11.303    0.364    0.150  172.090
  503.250  124.493   14.407    0.379    0.137  170.532
  503.500  112.020   18.020    0.382    0.124  169.995
  503.750   84.975   22.542    0.354    0.098  171.470
  504.000   76.755   26.908    0.312    0.047  171.435
  504.250   74.910   29.527    0.276   -0.007  173.424
  504.500   77.315   29.236    0.194   -0.007  173.899
  504.750   84.281   28.412    0.220    0.044  173.864
  505.000   89.422   27.613    0.272    0.067  173.319
  505.250   87.579   26.335    0.258    0.052  172.778
  505.500   84.516   25.121    0.244    0.049  173.249
  505.750   87.537   22.863    0.262    0.091  173.720
  506.000   98.751   21.008    0.319    0.136  173.685
  506.250  106.928   19.122    0.343    0.166  172.127
  506.500  113.587   17.405    0.346    0.165  170.574
  506.750  116.294   16.601    0.345    0.152  170.033
  507.000  114.147   16.285    0.337    0.147  172.520
  507.250  114.129   15.974    0.331    0.149  174.012
  507.500  115.930   15.524    0.330    0.152  174.478
  507.750  118.945   14.261    0.325    0.158  173.933
  508.000  121.657   13.104    0.324    0.164  173.907
  508.250  125.581   11.597    0.338    0.152  173.357
  508.500  128.902   11.062    0.360    0.153  173.322
  508.750  131.007   10.650    0.379    0.157  173.291
  509.000  120.659   10.846    0.365    0.157  173.252
  509.250  111.225   11.680    0.344    0.153  172.711
  509.500  106.953   12.464    0.343    0.155  172.676
  509.750  111.183   13.052    0.353    0.171  172.645
  510.000  110.555   12.925    0.367    0.172  173.618
  510.250  103.550   12.918    0.370    0.172  176.104
  510.500   97.757   13.783    0.369    0.168  176.078
  510.750   93.485   14.300    0.337    0.142  175.027
  511.000   92.247   14.160    0.319    0.110  172.972
  511.250   95.265   13.130    0.313    0.064  170.402
  511.500  108.605   12.409    0.361    0.061  169.359
  511.750  117.693   11.401    0.387    0.102  169.821
  512.000  117.368   10.281    0.409    0.158  170.799
  512.250  104.592    9.535    0.406    0.168  170.759
  512.500   92.116    8.759    0.365    0.183  169.716
  512.750   78.127    8.277    0.339    0.222  169.686
  513.000   52.901    7.822    0.314    0.274  170.157
  513.250   36.182    7.186    0.303    0.294  173.150
  513.500   28.871    6.727    0.292    0.303  173.625
  513.750   24.599    6.416    0.292    0.300  173.079
  514.000   23.665    6.236    0.294    0.300  172.543
  514.250   24.254    6.060    0.295    0.300  172.508
  514.500   25.748    6.060    0.296    0.297  172.464
  514.750   25.416    5.941    0.295    0.291  171.927
  515.000   24.489    5.666    0.295    0.293  171.386
  515.250   23.253    5.558    0.299    0.300  170.845
  515.500   23.230    5.558    0.304    0.307  168.781
  515.750   23.821    5.553    0.305    0.304  167.233
  516.000   26.533    5.444    0.309    0.302  166.692
  516.250   27.418    5.392    0.319    0.303  166.146
  516.500   28.007    5.389    0.322    0.305  165.601
  516.750   29.499    5.386    0.322    0.304  165.060
  517.000   29.483    5.334    0.321    0.304  164.518
  517.250   30.067    5.331    0.319    0.304  163.982
  517.500   30.046    5.325    0.316    0.305  163.947
  517.750   29.417    5.324    0.313    0.306  163.912
  518.000   29.090    5.322    0.308    0.303  164.374
  518.250   28.456    5.269    0.304    0.303  164.343
  518.500   29.048    5.266    0.304    0.303  163.798
  518.750   29.637    5.263    0.306    0.305  164.269
  519.000   29.616    5.261    0.308    0.306  164.234
  519.250   30.503    5.307    0.309    0.305  164.195
  519.500   31.396    5.404    0.309    0.305  164.164
  519.750   31.063    5.554    0.310    0.305  164.129
  520.000   31.346    5.710    0.310    0.305  163.583
  520.250   31.328    5.710    0.310    0.303  163.047
  520.500   31.306    5.810    0.309    0.302  162.497
  520.750   31.895    5.863    0.307    0.300  162.462
  521.000   33.089    5.969    0.309    0.295  161.415
  521.250   35.492    6.022    0.314    0.290  160.874
  521.500   36.691    6.076    0.328    0.284  160.337
  521.750   37.882    6.245    0.322    0.284  159.792
  522.000   38.164    6.359    0.313    0.288  159.761
  522.250   39.661    6.598    0.314    0.276  159.726
  522.500   47.839    6.845    0.308    0.268  159.687
  522.750   49.640    7.102    0.304    0.258  159.652
  523.000   52.048    7.300    0.309    0.259  159.608
  523.250   55.364    7.434    0.316    0.258  159.577
  523.500   58.380    7.499    0.313    0.251  159.546
  523.750   62.005    7.426    0.313    0.242  159.511
  524.000   67.450    7.283    0.321    0.238  159.468
  524.250   74.412    7.145    0.340    0.240  159.428
  524.500   77.119    6.943    0.339    0.238  159.393
  524.750   76.190    6.623    0.342    0.228  159.869
  525.000   57.950    6.436    0.336    0.235  160.850
  525.250   41.833    6.313    0.321    0.248  161.313
  525.500   37.865    6.309    0.313    0.265  160.776
  525.750   45.131    6.366    0.313    0.290  161.247
  526.000   52.094    6.543    0.325    0.298  162.726
  526.250   55.413    6.852    0.321    0.300  163.201
  526.500   57.214    6.852    0.325    0.296  163.672
  526.750   59.010    6.974    0.340    0.286  163.633
  527.000   60.510    7.871    0.334    0.280  164.108
  527.250   62.313    8.477    0.328    0.270  164.571
  527.500   64.418    9.216    0.323    0.256  164.540
  527.750   68.038    9.927    0.315    0.241  163.999
  528.000   67.708   12.651    0.299    0.215  163.458
  528.250   66.776   14.279    0.264    0.151  162.411
  528.500   67.671   16.886    0.237    0.101  161.861
  528.750   75.542   17.683    0.277    0.069  161.800
  529.000   82.809   16.401    0.306    0.099  161.285
  529.250   89.774   13.853    0.320    0.133  161.751
  529.500  102.503   11.062    0.329    0.140  161.725
  529.750  110.076   10.649    0.324    0.149  161.686
  530.000  117.646   10.649    0.326    0.153  161.646
  530.250  123.698   10.540    0.332    0.142  161.611
  530.500  128.535   10.052    0.338    0.138  162.593
  530.750  119.709    9.953    0.338    0.133  164.072
  531.000  116.646    9.855    0.338    0.143  165.555
  531.250  116.321    9.488    0.344    0.155  166.536
  531.500  117.821    9.221    0.349    0.157  166.493
  531.750  120.837    9.478    0.347    0.160  165.956
  532.000  125.368   11.208    0.336    0.165  166.427
  532.250  119.276   11.738    0.366    0.168  166.392
  532.500   93.137   13.003    0.368    0.164  165.847
  532.750   81.884   14.814    0.346    0.150  164.804
  533.000   66.070   15.083    0.320    0.137  163.757
  533.250   58.155   13.602    0.272    0.130  163.216
  533.500   55.398    8.598    0.286    0.160  164.184
  533.750   62.667    6.614    0.327    0.179  165.663
  534.000   87.545    5.799    0.371    0.191  166.644
  534.250  108.782    5.531    0.394    0.196  166.614
  534.500  117.263    5.531    0.413    0.194  166.068
  534.750  121.493    5.681    0.418    0.171  166.033
  535.000  107.502    6.120    0.393    0.156  165.492
  535.250  108.085    7.238    0.378    0.139  164.951
  535.500  114.747    7.651    0.343    0.155  164.410
  535.750  117.760    8.555    0.359    0.178  164.375
  536.000  104.379    9.655    0.342    0.180  164.340
  536.250   86.139    9.832    0.339    0.185  164.305
  536.500   67.593    9.644    0.333    0.210  165.278
  536.750   61.803    9.549    0.314    0.233  165.243
  537.000   57.832    9.544    0.305    0.249  165.208
  537.250   54.167    9.274    0.307    0.275  165.164
  537.500   47.764    9.184    0.303    0.280  165.138
  537.750   54.732    9.093    0.298    0.279  167.127
  538.000   65.946    9.260    0.296    0.273  171.647
  538.250   79.285    9.342    0.303    0.262  172.118
  538.500   87.463    9.336    0.312    0.237  172.083
  538.750   94.423    9.072    0.318    0.223  172.043
