~VERSION INFORMATION
 VERS.                 2.0:   CWLS LOG ASCII STANDARD -VERSION 2.0
 WRAP.                  NO:   ONE LINE PER DEPTH STEP
~WELL INFORMATION BLOCK
#MNEM.UNIT           DATA                    DESCRIPTION OF MNEMONIC
#---------    -------------------            -------------------------------
# Generated from Intellog Unique Number	CW_73_75/WELL/185
WELL.         BOWTEX MARTEN HILLS 01-04      : Well_name    - WELL
LOC .         00/01-04-075-23W4/0            : Location     - LOCATION
UWI .         00/01-04-075-23W4/0            : Uwi          - UNIQUE WELL ID
ENTR.         JAYE                           : Entered      - ENTERED BY
SRVC.         WESTERN ATLAS                  : Scn          - SERVICE COMPANY
DATE.         18 MAR 88                      : Date         - LOG DATE
STRT.M        435                            : top_depth    - START DEPTH
STOP.M        640                            : bot_depth    - STOP DEPTH
STEP.M        0.25                           : increment    - STEP LENGTH
 NULL. -999.2500:NULL Value
~CURVE INFORMATION BLOCK
#MNEM UNIT       ERCB CURVE CODE    CURVE DESCRIPTION
#-----------   ------------------   ----------------------------------
DEPT.M        00 001 00 00         : DEPTH        - DEPTH
ILD .OHMM     00 120 00 00         : RESD         - DEEP RESISTIVITY (DIL)
NPHI.V/V      00 330 00 00         : PHIN         - NEUTRON POROSITY (SANDSTONE)
DPHI.V/V      00 890 00 00         : PHID         - DENSITY POROSITY (SANDSTONE)
GR  .API      00 310 00 00         : GR           - GAMMA RAY
CALI.MM       00 280 01 00         : CAL          - CALIPER
~PARAMETER INFORMATION
#MNEM.UNIT           DATA             DESCRIPTION OF MNEMONIC
#---------         -----------     ------------------------------
GL  .M        715                  : gl           - GROUND LEVEL ELEVATION
EREF.M        718.3                : kb           - ELEVATION OF DEPTH REFERENCE
DATM.M        715                  : datum        - DATUM ELEVATION
TDD .M        640                  : tdd          - TOTAL DEPTH DRILLER
RUN .         ONE                  : Run          - RUN NUMBER
ENG .         NOWAKOWSKI           : Engineer     - RECORDING ENGINEER
WIT .         NUNEZ                : Witness      - WITNESSED BY
BASE.         RDD                  : Branch       - HOME BASE OF LOGGING UNIT
MUD .         GEL CHEM             : Mud_type     - MUD TYPE
MATR.         SANDSTONE            : Logunit      - NEUTRON MATRIX
TMAX.C        30                   : BHT          - MAXIMUM RECORDED TEMPERATURE
BHTD.M        640.2                : BHTDEP       - MAXIMUM RECORDED TEMPERATURE
RMT .C        19                   : MDTP         - TEMPERATURE OF MUD
MUDD.KG/M     1150                 : MWT          - MUD DENSITY
NEUT.         1                    : NEUTRON      - NEUTRON TYPE
RESI.         0                    : RESIST       - RESISTIVITY TYPE
RM  .OHMM     3.4                  : RM           - RESISTIVITY OF MUD
RMC .OHMM     4.65                 : RMC          - RESISTIVITY OF MUD CAKE
RMF .OHMM     4.78                 : RMF          - RESISTIVITY OF MUD FILTRATE
SUFT.C        0                    : SUFT         - SURFACE TEMPERATURE
~A  DEPTH     RESD     PHIN     PHID       GR      CAL
# ...
  581.000    7.127    0.460    0.188  112.474  211.651
  581.250    7.184    0.461    0.186  102.915  212.173
  581.500    7.200    0.441    0.157   98.312  212.590
  581.750    7.190    0.416    0.134  103.867  212.797
  582.000    6.941    0.396    0.163  111.555  212.795
  582.250    6.726    0.396    0.176  109.711  212.373
  582.500    6.641    0.396    0.185  104.041  206.603
  582.750    6.620    0.401    0.192  103.896  206.915
  583.000    6.748    0.422    0.200  103.745  209.010
  583.250    7.009    0.427    0.181  101.832  210.581
  583.500    7.171    0.392    0.136   98.483  210.474
  583.750    7.284    0.398    0.112   99.207  209.528
  584.000    7.287    0.421    0.145  103.447  208.791
  584.250    7.290    0.442    0.181  108.375  208.579
  584.500    7.266    0.468    0.194  103.275  208.996
  584.750    7.256    0.387    0.193  100.735  209.099
  585.000    7.191    0.371    0.179  100.711  209.516
  585.250    7.181    0.388    0.150  101.875  210.038
  585.500    7.130    0.394    0.149  103.300  210.770
  585.750    7.040    0.374    0.186  103.767  211.922
  586.000    6.978    0.408    0.181  104.241  212.548
  586.250    6.954    0.428    0.165  111.240  212.441
  586.500    6.944    0.417    0.167  110.965  211.810
  586.750    6.947    0.412    0.179  105.355  211.178
  587.000    6.989    0.419    0.195  101.945  210.966
  587.250    7.032    0.403    0.212   98.531  210.335
  587.500    7.209    0.399    0.219   94.617  207.606
  587.750    7.530    0.418    0.204   89.704  204.457
  588.000    8.000    0.391    0.152   83.281  204.245
  588.250    9.196    0.333    0.106   70.085  208.438
  588.500   10.354    0.302    0.091   70.937  210.428
  588.750   11.637    0.307    0.091   76.179  210.740
  589.000   12.362    0.315    0.102   81.671  210.948
  589.250   11.560    0.324    0.144   89.236  210.945
  589.500   10.830    0.329    0.169   93.471  210.838
  589.750   10.633    0.332    0.156   85.674  209.577
  590.000   10.638    0.331    0.113   80.626  208.946
  590.250   10.484    0.326    0.104   82.734  210.097
  590.500   10.046    0.324    0.108   87.727  211.248
  590.750    9.341    0.351    0.125   91.461  211.875
  591.000    8.784    0.381    0.164   93.127  211.768
  591.250    8.183    0.434    0.164   93.231  211.766
  591.500    7.638    0.417    0.116   94.521  211.868
  591.750    7.182    0.390    0.116   98.817  211.447
  592.000    6.907    0.391    0.149  106.573  210.815
  592.250    6.643    0.409    0.155  112.127  211.232
  592.500    6.560    0.397    0.137  117.744  212.803
  592.750    6.562    0.375    0.147  124.048  213.850
  593.000    6.653    0.399    0.167  130.231  214.162
  593.250    6.743    0.420    0.170  130.517  214.160
  593.500    6.887    0.381    0.170  123.783  213.423
  593.750    7.248    0.363    0.168  112.280  211.953
  594.000    7.600    0.350    0.173  104.732  209.538
  594.250    7.938    0.344    0.166  103.455  208.382
  594.500    8.215    0.347    0.163  102.108  208.171
  594.750    8.327    0.348    0.162   99.447  208.483
  595.000    8.377    0.341    0.159   99.359  208.481
  595.250    8.366    0.335    0.148  101.590  208.688
  595.500    8.338    0.328    0.146  105.200  208.685
  595.750    8.357    0.321    0.154  108.066  208.369
  596.000    8.424    0.311    0.164  109.981  208.052
  596.250    8.508    0.318    0.164  110.515  208.049
  596.500    8.640    0.330    0.131  105.412  207.837
  596.750    8.660    0.325    0.110   98.487  208.045
  597.000    9.806    0.336    0.049   93.570  208.357
  597.250   11.615    0.355    0.129   87.775  208.145
  597.500   14.365    0.288    0.134   82.671  203.424
  597.750   17.273    0.201    0.064   78.505  206.987
  598.000   18.945    0.164    0.041   73.089  209.187
  598.250   17.682    0.145    0.011   70.240  209.604
  598.500   15.053    0.192    0.025   74.983  209.602
  598.750   12.182    0.268    0.111   83.732  210.019
  599.000    9.785    0.363    0.138  104.023  210.541
  599.250    8.191    0.412    0.143   99.168  210.854
  599.500    7.645    0.415    0.132  101.026  211.271
  599.750    7.394    0.393    0.133  108.336  211.478
  600.000    7.315    0.389    0.144  104.296  211.790
  600.250    7.345    0.396    0.155  101.891  211.683
  600.500    7.376    0.402    0.162  100.295  211.681
  600.750    7.435    0.382    0.099   97.009  211.888
  601.000    7.355    0.334    0.068   98.299  211.781
  601.250    7.304    0.338    0.083  104.921  211.674
  601.500    7.171    0.369    0.107  108.592  211.147
  601.750    7.014    0.388    0.155  110.447  211.145
  602.000    6.823    0.377    0.147  112.053  211.352
  602.250    6.674    0.369    0.145  115.601  211.455
  602.500    6.540    0.392    0.154  118.458  211.558
  602.750    6.422    0.411    0.167  112.977  211.451
  603.000    6.376    0.393    0.166  111.700  211.343
  603.250    6.427    0.391    0.155  118.884  211.236
  603.500    6.539    0.377    0.152  119.047  211.129
  603.750    6.642    0.359    0.148  112.311  211.022
  604.000    6.732    0.353    0.137  105.763  211.229
  604.250    6.697    0.363    0.128  107.370  211.227
  604.500    6.650    0.368    0.130  109.731  211.434
  604.750    6.616    0.368    0.141  111.830  211.327
  605.000    6.532    0.355    0.155  113.624  211.325
  605.250    6.450    0.333    0.154  113.785  211.742
  605.500    6.416    0.308    0.130  110.000  211.845
  605.750    6.407    0.289    0.090   98.872  211.423
  606.000    6.314    0.282    0.075   97.781  209.218
  606.250    6.073    0.314    0.151  103.648  209.636
  606.500    5.348    0.336    0.162  106.821  211.101
  606.750    4.320    0.322    0.162  110.055  213.721
  607.000    3.463    0.333    0.179  114.167  213.299
  607.250    2.910    0.543    0.232  121.482  210.780
  607.500    2.636    0.546    0.234  126.532  209.938
  607.750    2.578    0.526    0.224  120.677  209.412
  608.000    2.668    0.492    0.217  119.084  209.410
  608.250    2.883    0.515    0.209  123.445  209.407
  608.500    3.289    0.542    0.198  128.375  209.929
  608.750    3.731    0.513    0.180  123.770  210.766
  609.000    4.297    0.474    0.150  109.886  211.708
  609.250    4.856    0.370    0.138  104.781  213.069
  609.500    5.217    0.350    0.138  110.400  214.010
  609.750    5.543    0.368    0.142  114.389  214.323
  610.000    5.790    0.388    0.148  115.803  214.635
  610.250    5.913    0.405    0.150  116.589  214.737
  610.500    6.119    0.399    0.137  113.116  214.630
  610.750    6.476    0.336    0.122  111.899  213.999
  611.000    6.867    0.333    0.128  113.752  213.682
  611.250    7.336    0.355    0.166  106.893  212.526
  611.500    7.853    0.330    0.207   95.641  211.370
  611.750    8.437    0.262    0.239   68.529  208.956
  612.000    8.980    0.182    0.171   54.958  205.492
  612.250    9.558    0.165    0.103   51.293  203.707
  612.500    9.909    0.171    0.338   48.948  203.076
  612.750   10.312    0.233    0.338   46.173  202.864
  613.000   10.671    0.237    0.358   44.633  202.756
  613.250   11.465    0.243    0.360   42.539  202.964
  613.500   13.129    0.267    0.355   41.318  203.381
  613.750   16.360    0.310    0.346   41.606  203.484
  614.000   18.841    0.355    0.334   42.272  203.482
  614.250   21.096    0.360    0.317   43.311  203.479
  614.500   21.871    0.360    0.305   47.988  204.211
  614.750   22.046    0.372    0.303   49.781  204.314
  615.000   21.808    0.374    0.306   50.634  204.941
  615.250   21.332    0.359    0.302   50.983  205.358
  615.500   20.441    0.340    0.306   51.772  205.356
  615.750   19.549    0.338    0.308   50.743  205.353
  616.000   17.672    0.344    0.304   48.902  204.617
  616.250   16.188    0.388    0.301   47.117  203.985
  616.500   14.856    0.395    0.298   45.398  203.458
  616.750   13.841    0.376    0.297   48.073  203.141
  617.000   13.211    0.360    0.298   53.247  203.139
  617.250   12.447    0.348    0.298   56.230  203.137
