~VERSION INFORMATION
 VERS.                 2.0:   CWLS LOG ASCII STANDARD -VERSION 2.0
 WRAP.                  NO:   ONE LINE PER DEPTH STEP
~WELL INFORMATION BLOCK
#MNEM.UNIT           DATA                    DESCRIPTION OF MNEMONIC
#---------    -------------------            -------------------------------
# Generated from Intellog Unique Number	CW_73_75/WELL/185
WELL.         BOWTEX MARTEN HILLS 01-04      : Well_name    - WELL
LOC .         00/01-04-075-23W4/0            : Location     - LOCATION
UWI .         00/01-04-075-23W4/0            : Uwi          - UNIQUE WELL ID
ENTR.         JAYE                           : Entered      - ENTERED BY
SRVC.         WESTERN ATLAS                  : Scn          - SERVICE COMPANY
DATE.         18 MAR 88                      : Date         - LOG DATE
STRT.M        435                            : top_depth    - START DEPTH
STOP.M        640                            : bot_depth    - STOP DEPTH
STEP.M        0.25                           : increment    - STEP LENGTH
 NULL. -999.2500:NULL Value
~CURVE INFORMATION BLOCK
#MNEM UNIT       ERCB CURVE CODE    CURVE DESCRIPTION
#-----------   ------------------   ----------------------------------
DEPT.M        00 001 00 00         : DEPTH        - DEPTH
ILD .OHMM     00 120 00 00         : RESD         - DEEP RESISTIVITY (DIL)
NPHI.V/V      00 330 00 00         : PHIN         - NEUTRON POROSITY (SANDSTONE)
DPHI.V/V      00 890 00 00         : PHID         - DENSITY POROSITY (SANDSTONE)
GR  .API      00 310 00 00         : GR           - GAMMA RAY
CALI.MM       00 280 01 00         : CAL          - CALIPER
~PARAMETER INFORMATION
#MNEM.UNIT           DATA             DESCRIPTION OF MNEMONIC
#---------         -----------     ------------------------------
GL  .M        715                  : gl           - GROUND LEVEL ELEVATION
EREF.M        718.3                : kb           - ELEVATION OF DEPTH REFERENCE
DATM.M        715                  : datum        - DATUM ELEVATION
TDD .M        640                  : tdd          - TOTAL DEPTH DRILLER
RUN .         ONE                  : Run          - RUN NUMBER
ENG .         NOWAKOWSKI           : Engineer     - RECORDING ENGINEER
WIT .         NUNEZ                : Witness      - WITNESSED BY
BASE.         RDD                  : Branch       - HOME BASE OF LOGGING UNIT
MUD .         GEL CHEM             : Mud_type     - MUD TYPE
MATR.         SANDSTONE            : Logunit      - NEUTRON MATRIX
TMAX.C        30                   : BHT          - MAXIMUM RECORDED TEMPERATURE
BHTD.M        640.2                : BHTDEP       - MAXIMUM RECORDED TEMPERATURE
RMT .C        19                   : MDTP         - TEMPERATURE OF MUD
MUDD.KG/M     1150                 : MWT          - MUD DENSITY
NEUT.         1                    : NEUTRON      - NEUTRON TYPE
RESI.         0                    : RESIST       - RESISTIVITY TYPE
RM  .OHMM     3.4                  : RM           - RESISTIVITY OF MUD
RMC .OHMM     4.65                 : RMC          - RESISTIVITY OF MUD CAKE
RMF .OHMM     4.78                 : RMF          - RESISTIVITY OF MUD FILTRATE
SUFT.C        0                    : SUFT         - SURFACE TEMPERATURE
~A  DEPTH     RESD     PHIN     PHID       GR      CAL
# ...
  544.500    5.761    0.441    0.203  114.065  213.770
  544.750    5.763    0.453    0.205  117.611  214.187
  545.000    5.723    0.444    0.213  106.362  213.870
  545.250    5.546    0.413    0.204   99.248  213.133
  545.500    5.486    0.389    0.209   95.524  212.292
  545.750    5.519    0.449    0.238   96.500  211.241
  546.000    5.711    0.460    0.244  104.190  208.722
  546.250    5.955    0.451    0.227  107.799  201.798
  546.500    6.232    0.429    0.203  103.886  211.129
  546.750    6.461    0.416    0.188  106.806  210.078
  547.000    6.599    0.454    0.191  105.903  209.657
  547.250    6.689    0.443    0.191   96.721  209.654
  547.500    6.692    0.417    0.191   88.041  208.498
  547.750    6.632    0.390    0.184   96.920  206.713
  548.000    6.549    0.369    0.177   99.152  204.823
  548.250    6.442    0.365    0.183  103.207  206.184
  548.500    6.396    0.369    0.192  108.004  207.440
  548.750    6.316    0.371    0.197  108.417  209.325
  549.000    6.120    0.389    0.194  108.016  210.477
  549.250    5.998    0.425    0.197  108.867  211.209
  549.500    5.845    0.459    0.197  111.916  211.626
  549.750    5.685    0.461    0.188  115.088  211.519
  550.000    5.571    0.419    0.181  112.991  212.041
  550.250    5.511    0.383    0.179  107.949  212.668
  550.500    5.493    0.413    0.181  108.865  213.295
  550.750    5.475    0.421    0.183  114.857  213.607
  551.000    5.571    0.407    0.179  110.944  214.024
  551.250    5.668    0.424    0.179  104.961  214.232
  551.500    5.703    0.450    0.182  108.570  214.754
  551.750    5.705    0.459    0.184  109.739  215.380
  552.000    5.783    0.456    0.185  107.579  215.798
  552.250    5.906    0.450    0.184  106.926  216.740
  552.500    6.147    0.421    0.184  102.950  213.067
  552.750    6.384    0.403    0.191   96.213  210.757
  553.000    6.644    0.400    0.192   97.821  209.916
  553.250    7.045    0.385    0.190  103.876  209.599
  553.500    7.345    0.419    0.206  107.548  208.338
  553.750    7.544    0.436    0.204   97.114  206.448
  554.000    7.633    0.382    0.179   82.100  207.390
  554.250    7.622    0.359    0.194   74.491  209.275
  554.500    7.497    0.401    0.210   73.333  209.692
  554.750    7.389    0.405    0.169   71.867  209.900
  555.000    7.214    0.375    0.153   99.243  208.849
  555.250    7.070    0.406    0.162  108.060  207.378
  555.500    6.890    0.423    0.177  112.545  211.990
  555.750    6.614    0.453    0.185  109.201  212.408
  556.000    6.361    0.503    0.196  104.161  212.195
  556.250    6.164    0.471    0.203  101.502  211.878
  556.500    6.007    0.451    0.193  101.537  211.561
  556.750    5.965    0.454    0.186  103.327  211.769
  557.000    5.990    0.459    0.190  104.995  211.871
  557.250    5.970    0.405    0.198  106.345  211.869
  557.500    5.995    0.389    0.204  108.390  211.552
  557.750    5.953    0.431    0.206  110.558  211.445
  558.000    5.934    0.455    0.205  113.854  211.548
  558.250    5.903    0.469    0.200  114.582  212.070
  558.500    5.872    0.480    0.200  108.914  212.277
  558.750    5.897    0.480    0.201  106.505  213.323
  559.000    5.910    0.467    0.200  105.976  213.636
  559.250    6.036    0.455    0.199  110.652  214.053
  559.500    6.235    0.463    0.199  111.003  214.051
  559.750    6.380    0.470    0.204  102.011  213.734
  560.000    6.430    0.446    0.193  104.681  211.320
  560.250    6.433    0.388    0.180  105.410  209.849
  560.500    6.412    0.366    0.161  103.437  209.532
  560.750    6.367    0.432    0.191  104.416  209.845
  561.000    6.370    0.450    0.206  106.022  210.367
  561.250    6.337    0.458    0.204  109.319  209.840
  561.500    6.304    0.455    0.200  111.612  209.733
  561.750    6.236    0.429    0.200  108.449  209.521
  562.000    6.123    0.402    0.192  102.278  209.204
  562.250    6.023    0.389    0.182   91.282  208.992
  562.500    5.980    0.375    0.206   92.195  208.779
  562.750    5.972    0.385    0.224   98.124  208.987
  563.000    5.986    0.421    0.212  108.446  209.824
  563.250    5.989    0.411    0.207  118.014  212.024
  563.500    6.048    0.404    0.206  113.221  213.595
  563.750    6.073    0.420    0.206  103.413  214.746
  564.000    6.053    0.410    0.201   94.294  214.010
  564.250    5.999    0.414    0.184   96.026  212.854
  564.500    5.857    0.500    0.163  105.848  211.383
  564.750    5.751    0.524    0.166  111.587  210.542
  565.000    5.851    0.401    0.138   93.564  209.806
  565.250    7.874    0.342    0.004   80.371  209.698
  565.500   12.267    0.293   -0.013   77.459  210.011
  565.750   17.497    0.233   -0.007   77.751  210.428
  566.000   23.724    0.217    0.004   76.910  207.908
  566.250   27.119    0.222    0.036   75.128  204.655
  566.500   23.790    0.271    0.099   74.786  204.233
  566.750   20.367    0.303    0.124   75.829  204.441
  567.000   17.404    0.327    0.168   78.182  205.592
  567.250   16.063    0.378    0.202   80.605  207.792
  567.500   15.133    0.416    0.181   81.829  205.797
  567.750   14.582    0.437    0.196   82.494  202.229
  568.000   13.998    0.450    0.237   81.654  201.598
  568.250   13.413    0.468    0.252   77.864  202.225
  568.500   12.900    0.496    0.264   76.084  204.425
  568.750   12.132    0.467    0.275   88.035  207.778
  569.000   11.451    0.469    0.255   93.212  209.769
  569.250   10.748    0.454    0.250   95.569  210.605
  569.500    9.900    0.425    0.263   92.974  210.603
  569.750    9.362    0.407    0.238   92.008  205.462
  570.000    9.022    0.404    0.217   94.801  204.201
  570.250    9.231    0.411    0.197   91.830  206.087
  570.500   10.355    0.417    0.180   85.847  209.860
  570.750   11.529    0.388    0.155   78.486  213.213
  571.000   12.480    0.355    0.117   77.704  210.589
  571.250   12.675    0.336    0.123   81.257  210.272
  571.500   11.918    0.323    0.123   84.616  210.584
  571.750   10.634    0.311    0.113   88.666  211.002
  572.000    9.595    0.300    0.109   92.462  211.734
  572.250    8.530    0.342    0.147   99.335  211.731
  572.500    7.696    0.367    0.175  103.322  211.519
  572.750    6.997    0.381    0.194  103.860  212.041
  573.000    6.793    0.386    0.201  105.903  212.249
  573.250    6.860    0.354    0.198  105.751  212.876
  573.500    7.059    0.371    0.190  103.595  213.188
  573.750    7.305    0.381    0.176  102.316  213.290
  574.000    7.602    0.371    0.170  102.855  213.603
  574.250    8.167    0.394    0.169  102.515  213.181
  574.500    8.404    0.401    0.168  101.109  212.654
  574.750    8.392    0.382    0.164   84.027  209.086
  575.000    8.364    0.332    0.102   71.208  206.148
  575.250    8.182    0.305    0.086   77.640  206.775
  575.500    8.049    0.373    0.120   88.338  211.701
  575.750    7.814    0.405    0.151   99.974  212.643
  576.000    7.501    0.411    0.158  101.642  212.011
  576.250    7.241    0.390    0.164  105.258  211.380
  576.500    7.017    0.376    0.176  111.629  210.853
  576.750    6.826    0.407    0.172  111.975  209.383
  577.000    6.727    0.435    0.165  112.137  207.807
  577.250    6.692    0.430    0.173  112.675  208.015
  577.500    6.720    0.419    0.171  104.998  208.851
  577.750    6.736    0.422    0.162  105.979  209.478
  578.000    6.726    0.418    0.165  110.716  209.581
  578.250    6.704    0.401    0.177  111.254  209.578
  578.500    6.707    0.384    0.180  109.726  209.366
  578.750    6.735    0.397    0.174  109.447  209.364
  579.000    6.738    0.411    0.166  109.928  210.201
  579.250    6.741    0.408    0.163  109.958  212.820
  579.500    6.782    0.395    0.163  109.367  213.447
  579.750    6.811    0.386    0.149  104.388  212.816
  580.000    6.813    0.384    0.139  103.113  212.184
  580.250    6.868    0.417    0.154  107.977  211.972
  580.500    6.910    0.442    0.164  114.412  211.550
  580.750    7.030    0.452    0.174  119.271  211.443
