~VERSION INFORMATION
 VERS.                 2.0:   CWLS LOG ASCII STANDARD -VERSION 2.0
 WRAP.                  NO:   ONE LINE PER DEPTH STEP
~WELL INFORMATION BLOCK
#MNEM.UNIT           DATA                    DESCRIPTION OF MNEMONIC
#---------    -------------------            -------------------------------
# Generated from Intellog Unique Number	CX_WELLS/WELL/2743
WELL.         THORNBURY                      : Well_name    - WELL
LOC .         00/01-09-080-13W4/0            : Location     - LOCATION
UWI .         00/01-09-080-13W4/0            : Uwi          - UNIQUE WELL ID
ENTR.         T                              : Entered      - ENTERED BY
SRVC.         SCHLUMBERGER                   : Scn          - SERVICE COMPANY
STRT.M        270                            : top_depth    - START DEPTH
STOP.M        500                            : bot_depth    - STOP DEPTH
STEP.M        0.25                           : increment    - STEP LENGTH
 NULL. -999.2500:NULL Value
~CURVE INFORMATION BLOCK
#MNEM UNIT       ERCB CURVE CODE    CURVE DESCRIPTION
#-----------   ------------------   ----------------------------------
DEPT.M        00 001 00 00         : DEPTH        - DEPTH
GR  .API      00 310 00 00         : GR           - GAMMA RAY
NPHI.V/V      00 330 00 00         : PHIN         - NEUTRON POROSITY (SANDSTONE)
DPHI.V/V      00 890 00 00         : PHID         - DENSITY POROSITY (SANDSTONE)
ILD .OHMM     00 120 00 00         : RESD         - DEEP RESISTIVITY (DLL)
~PARAMETER INFORMATION
#MNEM.UNIT           DATA             DESCRIPTION OF MNEMONIC
#---------         -----------     ------------------------------
GL  .M        681.9                : gl           - GROUND LEVEL ELEVATION
EREF.M        685.9                : kb           - ELEVATION OF DEPTH REFERENCE
DATM.M        685.9                : datum        - DATUM ELEVATION
TDD .M        504                  : tdd          - TOTAL DEPTH DRILLER
RUN .         ONE                  : Run          - RUN NUMBER
ENG .         BILL                 : Engineer     - RECORDING ENGINEER
WIT .         JIM                  : Witness      - WITNESSED BY
MUD .         GEL                  : Mud_type     - MUD TYPE
MATR.         SANDSTONE            : Logunit      - NEUTRON MATRIX
TMAX.C        30                   : BHT          - MAXIMUM RECORDED TEMPERATURE
BHTD.M        504                  : BHTDEP       - MAXIMUM RECORDED TEMPERATURE
MATR.         1                    : LOGUNIT      - NEUTRON MATRIX
RMT .C        20                   : MDTP         - TEMPERATURE OF MUD
NEUT.         1                    : NEUTRON      - NEUTRON TYPE
RESI.         3.5                  : RESIST       - RESISTIVITY TYPE
RMC .OHMM     2.3                  : RMC          - RESISTIVITY OF MUD CAKE
RMF .OHMM     4.5                  : RMF          - RESISTIVITY OF MUD FILTRATE
SUFT.C        4                    : SUFT         - SURFACE TEMPERATURE
~A  DEPTH       GR     PHIN     PHID     RESD
  270.000  103.085    0.513    0.209    4.119
  270.250  109.154    0.517    0.206    4.128
  270.500  121.880    0.526    0.208    4.139
  270.750  123.146    0.543    0.217    4.146
  271.000  114.776    0.566    0.228    4.159
  271.250  108.831    0.586    0.226    4.166
  271.500  114.313    0.497    0.222    4.252
  271.750  111.364    0.501    0.222    4.261
  272.000  107.812    0.493    0.222    4.439
  272.250  107.272    0.535    0.220    4.446
  272.500  106.113    0.568    0.216    4.540
  272.750  100.153    0.460    0.207    4.727
  273.000   92.400    0.454    0.183    4.825
  273.250   91.257    0.452    0.145    5.117
  273.500   89.497    0.457    0.178    5.529
  273.750   84.138    0.484    0.202    6.447
  274.000   80.571    0.516    0.229    7.099
  274.250   77.019    0.544    0.249    7.826
  274.500   71.661    0.442    0.256    7.988
  274.750   69.916    0.434    0.271    8.000
  275.000   69.375    0.432    0.285    7.729
  275.250   81.499    0.437    0.277    7.593
  275.500   72.526    0.442    0.252    7.467
  275.750   68.372    0.440    0.247    7.770
  276.000   62.998    0.412    0.252    8.724
  276.250   57.037    0.388    0.259    9.612
  276.500   98.086    0.385    0.241   10.188
  276.750   99.955    0.385    0.223    9.837
  277.000   95.801    0.386    0.217    8.976
  277.250   93.469    0.388    0.206    8.496
  277.500  101.978    0.390    0.142    8.042
  277.750  106.843    0.392    0.168    7.201
  278.000  112.928    0.404    0.202    6.324
  278.250  116.619    0.426    0.218    5.551
  278.500  119.106    0.435    0.228    4.872
  278.750  121.561    0.452    0.225    4.199
  279.000  124.650    0.479    0.222    4.290
  279.250  122.905    0.533    0.219    4.725
  279.500  116.929    0.566    0.218    5.717
  279.750  100.729    0.449    0.218    8.202
  280.000   90.537    0.437    0.220   10.114
  280.250   75.541    0.422    0.230   12.238
  280.500   59.944    0.393    0.262   14.269
  280.750   70.245    0.365    0.296   15.713
  281.000   73.920    0.367    0.309   16.998
  281.250   69.766    0.373    0.320   17.680
  281.500   64.407    0.380    0.320   18.408
  281.750   59.049    0.385    0.321   18.428
  282.000   53.675    0.379    0.322   18.477
  282.250   47.729    0.372    0.323   18.536
  282.500   48.996    0.371    0.325   18.556
  282.750   54.478    0.377    0.330   18.268
  283.000   59.961    0.384    0.333   18.287
  283.250   60.038    0.389    0.335   17.676
  283.500   59.482    0.393    0.333   17.705
  283.750   60.749    0.399    0.327   17.077
  284.000   64.456    0.401    0.322   16.785
  284.250   66.927    0.397    0.319   16.198
  284.500   70.603    0.388    0.316   15.348
  284.750   76.070    0.383    0.318   14.535
  285.000   83.992    0.385    0.318   13.256
  285.250   85.846    0.388    0.315   12.082
  285.500   89.521    0.389    0.306   10.819
  285.750   99.235    0.399    0.242   10.435
  286.000   94.479    0.410    0.237   10.273
  286.250   91.545    0.407    0.223   10.284
  286.500   96.410    0.401    0.229   10.306
  286.750  104.302    0.395    0.237   10.135
  287.000  100.147    0.388    0.239   10.157
  287.250   95.391    0.388    0.230   10.178
  287.500   90.032    0.389    0.230   10.206
  287.750   98.542    0.392    0.236   10.222
  288.000  102.835    0.394    0.231   10.063
  288.250  103.500    0.404    0.222   10.074
  288.500  104.751    0.416    0.228   10.106
  288.750  101.199    0.434    0.232   10.326
  289.000   97.647    0.437    0.259   10.540
  289.250   94.713    0.440    0.285   11.177
  289.500   91.146    0.443    0.296   12.542
  289.750   82.776    0.435    0.309   13.553
  290.000   83.440    0.406    0.322   14.112
  290.250   85.911    0.399    0.316   14.403
  290.500   88.382    0.399    0.314   14.725
  290.750   92.058    0.402    0.319   14.748
  291.000   92.722    0.390    0.317   15.053
  291.250   99.440    0.395    0.306   15.380
  291.500  101.927    0.396    0.276   15.723
  291.750  103.178    0.391    0.288   16.040
  292.000  103.842    0.389    0.295   16.074
  292.250   96.059    0.389    0.300   16.424
  292.500   90.098    0.424    0.307   16.468
  292.750   91.967    0.418    0.304   16.494
  293.000   98.669    0.413    0.290   16.494
  293.250  106.561    0.408    0.268   17.529
  293.500  122.298    0.403    0.260   16.907
  293.750  102.469    0.398    0.251   16.952
  294.000   92.292    0.392    0.252   16.360
  294.250   88.771    0.384    0.255   15.779
  294.500   86.393    0.373    0.253   14.944
  294.750   82.223    0.365    0.233   13.895
  295.000   77.467    0.363    0.207   13.159
  295.250   70.301    0.369    0.183   12.229
  295.500   68.556    0.393    0.131   11.359
  295.750   78.873    0.395    0.144    9.795
  296.000   88.572    0.400    0.162    8.928
  296.250   97.081    0.404    0.155    7.990
  296.500  100.757    0.414    0.163    7.017
  296.750  105.652    0.415    0.174    6.518
  297.000  108.726    0.448    0.188    5.833
  297.250  113.004    0.456    0.195    5.527
  297.500  117.297    0.449    0.197    5.336
  297.750  121.575    0.464    0.195    5.242
  298.000  124.649    0.482    0.187    5.158
  298.250  127.120    0.509    0.158    5.169
  298.500  127.800    0.570    0.181    5.279
  298.750  128.464    0.546    0.170    5.496
  299.000  129.715    0.513    0.147    5.508
  299.250  130.379    0.484    0.135    5.417
  299.500  130.441    0.453    0.177    5.225
  299.750  130.519    0.445    0.195    4.858
  300.000  131.183    0.450    0.190    4.686
  300.250  132.465    0.451    0.189    4.198
  300.500  133.731    0.456    0.197    4.047
  300.750  135.600    0.472    0.208    3.833
  301.000  137.469    0.494    0.223    3.769
  301.250  139.925    0.455    0.234    3.997
  301.500  140.002    0.446    0.234    4.485
  301.750  131.014    0.428    0.239    5.967
  302.000  115.432    0.421    0.248    7.498
  302.250  115.478    0.422    0.263    9.427
  302.500  116.143    0.423    0.230   10.786
  302.750  115.000    0.433    0.224   11.218
  303.000  110.244    0.437    0.238   11.044
  303.250  104.283    0.436    0.260   10.664
  303.500   97.704    0.425    0.264   10.088
  303.750   91.743    0.423    0.246    9.370
  304.000  104.469    0.451    0.216    8.229
  304.250  120.808    0.477    0.209    7.793
  304.500  125.688    0.461    0.223    8.273
  304.750  131.773    0.454    0.234    8.600
  305.000  140.283    0.439    0.230    9.661
  305.250  134.924    0.421    0.225   10.240
  305.500  127.758    0.397    0.226   11.503
  305.750  123.589    0.420    0.228   11.958
  306.000  114.616    0.432    0.238   12.444
  306.250   97.196    0.440    0.246   12.483
  306.500   91.251    0.418    0.259   12.504
  306.750   93.104    0.413    0.269   12.530
  307.000  107.065    0.403    0.274   12.329
  307.250  108.301    0.395    0.259   12.125
  307.500  113.197    0.391    0.251   11.924
  307.750  116.270    0.387    0.248   11.726
  308.000  120.548    0.391    0.254   11.751
  308.250  115.189    0.407    0.262   11.550
  308.500  103.808    0.431    0.275   11.377
  308.750   96.627    0.439    0.272   11.395
  309.000   81.029    0.428    0.268   11.194
  309.250   78.080    0.423    0.283   11.224
  309.500   82.358    0.423    0.283   11.242
  309.750   85.447    0.423    0.276   11.266
  310.000   85.493    0.422    0.275   11.302
  310.250   84.953    0.418    0.273   11.314
  310.500   84.428    0.418    0.267   11.344
  310.750   83.888    0.419    0.263   11.156
  311.000   85.154    0.419    0.260   10.971
  311.250   85.216    0.419    0.256   10.789
  311.500   87.687    0.415    0.249   10.418
  311.750   90.760    0.411    0.246   10.434
  312.000   93.232    0.413    0.245   10.267
  312.250   94.514    0.426    0.241   10.097
  312.500   96.985    0.433    0.235   10.118
  312.750   98.885    0.434    0.233    9.956
  313.000   98.916    0.432    0.234    9.966
  313.250   99.580    0.427    0.231    9.987
