~VERSION INFORMATION
 VERS.                 2.0:   CWLS LOG ASCII STANDARD -VERSION 2.0
 WRAP.                  NO:   ONE LINE PER DEPTH STEP
~WELL INFORMATION BLOCK
#MNEM.UNIT           DATA                    DESCRIPTION OF MNEMONIC
#---------    -------------------            -------------------------------
# Generated from Intellog Unique Number	CC_84_87/WELL/1043
NULL.         -999.25                        : NULL_VALUE
WELL.         PETROREP ET AL HOUSE           : Well_name    - WELL
LOC .         01-03-085-15W4                 : Location     - LOCATION          
UWI .         00/01-03-085-15W400            : Uwi          - UNIQUE WELL ID    
ENTR.         DW                             : Entered      - ENTERED BY        
SRVC.         COMPUTALOG                     : Scn          - SERVICE COMPANY   
DATE.         11 JAN 85                      : Date         - LOG DATE
STRT.M        97                             : top_depth    - START DEPTH       
STOP.M        252.102                        : bot_depth    - STOP DEPTH        
STEP.M        0.3                            : increment    - STEP LENGTH       
~CURVE INFORMATION BLOCK
#MNEM UNIT       ERCB CURVE CODE    CURVE DESCRIPTION
#-----------   ------------------   ----------------------------------
DEPT.M        00 001 00 00         : DEPTH        - DEPTH                       
DPHI.V/V      00 890 00 00         : PHID         - DENSITY POROSITY (LIMESTONE)
NPHI.V/V      00 330 00 00         : PHIN         - NEUTRON POROSITY (LIMESTONE)
GR  .API      00 310 00 00         : GR           - GAMMA RAY                   
ILD .OHMM     00 120 00 00         : RESD         - DEEP RESISTIVITY (DIL)      
~PARAMETER INFORMATION       
#MNEM.UNIT           DATA             DESCRIPTION OF MNEMONIC
#---------         -----------     ------------------------------
GL  .M        528.69               : gl           - GROUND LEVEL ELEVATION      
EREF.M        532.68               : kb           - ELEVATION OF DEPTH REFERENCE
DATM.M        532.68               : datum        - DATUM ELEVATION             
TDD .M        252                  : tdd          - TOTAL DEPTH DRILLER         
RUN .         ONE                  : Run          - RUN NUMBER                  
ENG .         BILL                 : Engineer     - RECORDING ENGINEER          
WIT .         JIM                  : Witness      - WITNESSED BY                
MUD .         GEL                  : Mud_type     - MUD TYPE                    
MATR.         LIMESTONE            : Logunit      - NEUTRON MATRIX              
TMAX.C        20                   : BHT          - MAXIMUM RECORDED TEMPERATURE
BHTD.M        252                  : BHTDEP       - MAXIMUM RECORDED TEMPERATURE
MATR.         1                    : LOGUNIT      - NEUTRON MATRIX              
RMT .C        25                   : MDTP         - TEMPERATURE OF MUD          
NEUT.         1                    : NEUTRON      - NEUTRON TYPE                
RESI.         0                    : RESIST       - RESISTIVITY TYPE            
RMC .OHMM     0.25                 : RMC          - RESISTIVITY OF MUD CAKE     
RMF .OHMM     0.25                 : RMF          - RESISTIVITY OF MUD FILTRATE 
SUFT.C        15                   : SUFT         - SURFACE TEMPERATURE         
~A  DEPTH     PHID     PHIN       GR     RESD
   97.000    0.326    0.412   91.436   16.597
   97.300    0.321    0.384  103.410   15.074
   97.600    0.289    0.374  116.013   13.957
   97.900    0.258    0.398  116.635   13.174
   98.200    0.274    0.407   83.204   14.785
   98.500    0.303    0.416   69.322   16.916
   98.800    0.318    0.416   61.116   18.624
   99.100    0.326    0.387   54.800   18.624
   99.400    0.322    0.350   69.295   16.915
   99.700    0.292    0.351   91.358   12.432
  100.000    0.243    0.412  112.159    9.496
  100.300    0.210    0.446  122.239    7.684
  100.600    0.192    0.459  126.014    6.716
  100.900    0.220    0.478  128.528    6.218
  101.200    0.241    0.471  133.562    5.757
  101.500    0.209    0.455  135.448    5.757
  101.800    0.187    0.452  126.612    5.983
  102.100    0.205    0.454  120.928    6.099
  102.400    0.225    0.461  122.178    5.868
  102.700    0.206    0.478  121.539    5.228
  103.000    0.190    0.475  130.360    4.482
  103.300    0.209    0.470  136.027    4.150
  103.600    0.238    0.507  134.126    4.313
  103.900    0.254    0.483  117.091    6.585
  104.200    0.280    0.418   92.490   10.860
  104.500    0.325    0.401   76.715   14.492
  104.800    0.330    0.408   76.707   15.955
  105.100    0.299    0.411   87.417   14.773
  105.400    0.276    0.397   94.976   11.954
  105.700    0.267    0.395  101.275   10.858
  106.000    0.251    0.414  110.724   10.248
  106.300    0.230    0.411  111.978    9.673
  106.600    0.227    0.403  113.858    9.130
  106.900    0.235    0.400  108.807    9.307
  107.200    0.290    0.410   96.186   10.051
  107.500    0.430    0.505   74.107   12.662
  107.800    0.470    0.507   64.008   14.768
  108.100    0.398    0.417   72.828   18.249
  108.400    0.338    0.381   77.230   22.549
  108.700    0.354    0.358   76.593   26.812
  109.000    0.362    0.275   71.538   31.880
  109.300    0.358    0.262   67.747   32.498
  109.600    0.357    0.270   65.216   29.516
  109.900    0.349    0.303   63.317   25.796
  110.200    0.344    0.339   67.721   23.884
  110.500    0.338    0.367   65.822   23.428
  110.800    0.333    0.390   60.768   22.542
  111.100    0.329    0.409   62.648   22.112
  111.400    0.330    0.412   63.904   21.276
  111.700    0.343    0.405   63.895   20.472
  112.000    0.354    0.404   60.733   20.081
  112.300    0.347    0.405   61.987   20.081
  112.600    0.342    0.415   62.607   20.470
  112.900    0.343    0.410   67.645   20.079
  113.200    0.358    0.399   80.878   18.953
  113.500    0.367    0.395   63.212   16.885
  113.800    0.355    0.394   62.573   16.884
  114.100    0.332    0.400   60.672   17.546
  114.400    0.347    0.410   56.250   18.234
  114.700    0.358    0.413   61.915   19.692
  115.000    0.347    0.409   65.692   20.464
  115.300    0.343    0.404   65.683   21.266
  115.600    0.350    0.368   62.521   22.529
  115.900    0.357    0.347   57.464   22.966
  116.200    0.358    0.377   55.568   22.965
  116.500    0.353    0.417   55.556   22.097
  116.800    0.337    0.439   58.070   21.675
  117.100    0.332    0.423   60.583   20.459
  117.400    0.347    0.393   60.575   19.686
  117.700    0.355    0.393   59.308   18.942
  118.000    0.351    0.422   56.144   18.580
  118.300    0.361    0.414   56.138   18.940
  118.600    0.348    0.410   60.541   18.940
  118.900    0.347    0.407   59.272   20.064
  119.200    0.361    0.408   56.742   20.454
  119.500    0.359    0.410   59.255   20.453
  119.800    0.354    0.419   49.788   20.452
  120.100    0.347    0.429   55.455   19.304
  120.400    0.345    0.431   60.491   18.221
  120.700    0.361    0.422   52.915   18.220
  121.000    0.359    0.394   56.689   18.573
  121.300    0.333    0.296   58.573   22.513
  121.600    0.220    0.220   51.626   47.679
  121.900    0.042    0.165   45.312   45.003
  122.200    0.066    0.176   45.935   37.125
  122.500    0.173    0.254   59.167   25.756
  122.800    0.345    0.309   62.941   20.445
  123.100    0.366    0.398   62.304   17.868
  123.400    0.369    0.413   58.512   16.865
  123.700    0.352    0.389   56.609   16.227
  124.000    0.336    0.418   57.859   16.863
  124.300    0.337    0.437   59.114   17.525
  124.600    0.349    0.426   60.369   17.524
  124.900    0.349    0.385   57.837   17.189
  125.200    0.347    0.397   56.568   16.224
  125.500    0.350    0.421   62.864   15.314
  125.800    0.355    0.407   55.918   14.454
  126.100    0.355    0.382   54.651   14.454
  126.400    0.351    0.378   60.946   15.312
  126.700    0.332    0.403   66.612   16.222
  127.000    0.340    0.408   68.496   15.912
  127.300    0.344    0.406   67.227   15.019
  127.600    0.338    0.403   62.804   14.451
  127.900    0.344    0.412   62.793   15.018
  128.200    0.349    0.412   64.046   15.309
  128.500    0.346    0.427   64.668   14.174
  128.800    0.327    0.445   66.551   12.628
  129.100    0.301    0.440   67.174   11.920
  129.400    0.305    0.412   67.166   11.919
  129.700    0.319    0.418   67.157   11.250
  130.000    0.307    0.424   73.454   10.619
  130.300    0.310    0.408   76.597    9.644
  130.600    0.355    0.434   77.852    8.759
  130.900    0.344    0.450   78.472    8.759
  131.200    0.305    0.450   75.942    9.460
  131.500    0.296    0.437   79.718   10.414
  131.800    0.283    0.395   81.598   10.823
  132.100    0.278    0.387   76.547   10.414
  132.400    0.276    0.395   82.215   10.020
  132.700    0.271    0.446   87.251    8.427
  133.000    0.265    0.478   92.287    6.561
  133.300    0.259    0.470   96.061    5.959
  133.600    0.252    0.425   96.052    5.846
  133.900    0.248    0.417   87.215    5.959
  134.200    0.244    0.457   83.424    6.560
  134.500    0.244    0.429   85.306    7.085
  134.800    0.249    0.440   91.601    7.363
  135.100    0.267    0.435   85.288    7.363
  135.400    0.267    0.429   79.605    7.505
  135.700    0.255    0.428   85.899    7.799
  136.000    0.261    0.435   85.263    7.951
  136.300    0.276    0.465   78.947    8.105
  136.600    0.287    0.462   80.832    7.950
  136.900    0.287    0.420   84.604    7.650
  137.200    0.282    0.410   85.228    6.948
  137.500    0.266    0.457   87.742    6.310
  137.800    0.261    0.473   91.516    6.190
  138.100    0.267    0.461   92.139    6.072
  138.400    0.280    0.453   86.453    6.309
  138.700    0.293    0.437   89.598    7.359
  139.000    0.309    0.426   87.697   10.405
  139.300    0.322    0.419   80.123   14.997
  139.600    0.339    0.408   75.700   21.203
  139.900    0.332    0.377   61.818   22.898
  140.200    0.291    0.381   64.962   20.797
  140.500    0.300    0.419   85.763   17.490
  140.800    0.278    0.399   84.494   16.829
  141.100    0.106    0.219   58.000   19.254
  141.400    0.000    0.163   51.685   23.792
  141.700    0.099    0.158   51.045   28.290
  142.000    0.189    0.225   58.605   30.552
  142.300    0.260    0.321   75.622   25.693
  142.600    0.280    0.377   95.161   16.825
  142.900    0.262    0.428   93.889   12.606
  143.200    0.259    0.432   90.096   10.201
  143.500    0.259    0.432   88.198    9.265
  143.800    0.257    0.423   86.929    9.445
  144.100    0.259    0.420   91.966   10.200
  144.400    0.271    0.439   86.280   10.600
  144.700    0.276    0.451   85.640   11.015
  145.000    0.261    0.456   91.939   11.015
  145.300    0.260    0.452   96.344   11.015
  145.600    0.266    0.429   96.967   10.804
  145.900    0.270    0.408   89.391   10.598
  146.201    0.271    0.408   87.490   10.598
  146.501    0.279    0.446   84.957   10.395
  146.801    0.269    0.429   84.950   10.803
  147.101    0.254    0.413   88.725   11.012
  147.401    0.256    0.421   92.500   11.012
  147.701    0.275    0.452   97.534   10.801
  148.001    0.255    0.429   97.526   10.393
  148.301    0.241    0.446   96.887    9.623
  148.601    0.235    0.453   94.358    8.910
  148.901    0.251    0.424   79.215    8.740
