~VERSION INFORMATION
 VERS.                 2.0:   CWLS LOG ASCII STANDARD -VERSION 2.0
 WRAP.                  NO:   ONE LINE PER DEPTH STEP
~WELL INFORMATION BLOCK
#MNEM.UNIT           DATA                    DESCRIPTION OF MNEMONIC
#---------    -------------------            -------------------------------
# Generated from Intellog Unique Number	CW_76_78/WELL/2562
WELL.         BARNWELL ET AL MCMULLEN        : Well_name    - WELL
LOC .         00/01-10-078-26W4/0            : Location     - LOCATION
UWI .         00/01-10-078-26W4/0            : Uwi          - UNIQUE WELL ID
ENTR.         MAX                            : Entered      - ENTERED BY
SRVC.         COMPUTALOG                     : Scn          - SERVICE COMPANY
STRT.M        320                            : top_depth    - START DEPTH
STOP.M        560                            : bot_depth    - STOP DEPTH
STEP.M        0.25                           : increment    - STEP LENGTH
 NULL. -999.2500:NULL Value
~CURVE INFORMATION BLOCK
#MNEM UNIT       ERCB CURVE CODE    CURVE DESCRIPTION
#-----------   ------------------   ----------------------------------
DEPT.M        00 001 00 00         : DEPTH        - DEPTH
GR  .API      00 310 00 00         : GR           - GAMMA RAY
ILD .OHMM     00 120 00 00         : RESD         - DEEP RESISTIVITY (DIL)
NPHI.V/V      00 330 00 00         : PHIN         - NEUTRON POROSITY (SANDSTONE)
DPHI.V/V      00 890 00 00         : PHID         - DENSITY POROSITY (SANDSTONE)
CALI.MM       00 280 01 00         : CAL          - CALIPER
~PARAMETER INFORMATION
#MNEM.UNIT           DATA             DESCRIPTION OF MNEMONIC
#---------         -----------     ------------------------------
GL  .M        610.3                : gl           - GROUND LEVEL ELEVATION
EREF.M        613.8                : kb           - ELEVATION OF DEPTH REFERENCE
DATM.M        610.3                : datum        - DATUM ELEVATION
TDD .M        561                  : tdd          - TOTAL DEPTH DRILLER
RUN .         ONE                  : Run          - RUN NUMBER
ENG .         BILL                 : Engineer     - RECORDING ENGINEER
WIT .         JIM                  : Witness      - WITNESSED BY
MUD .         GEL                  : Mud_type     - MUD TYPE
MATR.         SANDSTONE            : Logunit      - NEUTRON MATRIX
TMAX.C        26                   : BHT          - MAXIMUM RECORDED TEMPERATURE
BHTD.M        561                  : BHTDEP       - MAXIMUM RECORDED TEMPERATURE
RMT .C        21                   : MDTP         - TEMPERATURE OF MUD
MUDD.KG/M     1160                 : MWT          - MUD DENSITY
NEUT.         1                    : NEUTRON      - NEUTRON TYPE
RESI.         0                    : RESIST       - RESISTIVITY TYPE
RM  .OHMM     3.7                  : RM           - RESISTIVITY OF MUD
RMC .OHMM     2.4                  : RMC          - RESISTIVITY OF MUD CAKE
RMF .OHMM     3.5                  : RMF          - RESISTIVITY OF MUD FILTRATE
SUFT.C        -10                  : SUFT         - SURFACE TEMPERATURE
~A  DEPTH       GR     RESD     PHIN     PHID      CAL
# ...
  429.500   85.149    9.964    0.373    0.273  160.001
  429.750   86.332    9.775    0.374    0.269  162.982
  430.000   88.736    9.327    0.392    0.247  161.398
  430.250   93.888    8.576    0.397    0.238  158.780
  430.500   96.593    8.108    0.396    0.242  155.653
  430.750   99.608    7.953    0.397    0.239  154.061
  431.000  102.628    8.022    0.401    0.225  153.486
  431.250   99.229    8.396    0.387    0.236  153.429
  431.500   91.550    8.951    0.362    0.268  153.865
  431.750   87.841    9.901    0.365    0.264  154.309
  432.000   84.443   10.654    0.378    0.229  155.262
  432.250   81.345   11.785    0.332    0.198  156.215
  432.500   79.173   12.915    0.310    0.158  156.133
  432.750   75.469   14.287    0.284    0.109  156.585
  433.000   69.623   15.373    0.246    0.084  157.522
  433.250   67.737   16.386    0.243    0.082  158.491
  433.500   68.318   16.375    0.269    0.094  160.462
  433.750   70.722   15.773    0.308    0.130  162.425
  434.000   73.432   14.772    0.346    0.160  161.350
  434.250   73.393   13.967    0.359    0.212  158.740
  434.500   73.048   12.844    0.363    0.226  156.113
  434.750   73.925   11.809    0.356    0.238  159.102
  435.000   76.024   11.063    0.353    0.255  163.109
  435.250   79.039   10.268    0.383    0.263  163.044
  435.500   81.138    9.530    0.389    0.268  159.917
  435.750   83.847    9.093    0.374    0.265  157.315
  436.000   87.468    8.920    0.366    0.246  155.714
  436.250   93.237    8.997    0.382    0.235  155.149
  436.500   95.946    9.242    0.400    0.234  154.566
  436.750   97.739    9.409    0.399    0.232  154.501
  437.000   94.336    9.755    0.391    0.227  154.444
  437.250   90.627   10.210    0.390    0.219  154.880
  437.500   90.593   10.394    0.395    0.225  155.308
  437.750   91.776   10.101    0.391    0.242  156.260
  438.000   93.564    9.119    0.371    0.238  157.739
  438.250   95.352    8.464    0.386    0.225  160.703
  438.500   97.461    7.855    0.413    0.215  160.662
  438.750  101.392    7.564    0.429    0.212  159.571
  439.000  104.097    7.564    0.431    0.212  161.025
  439.250  105.284    7.484    0.430    0.214  165.023
  439.500  106.452    7.549    0.425    0.214  168.012
  439.750  105.812    7.684    0.418    0.211  168.472
  440.000   99.665    7.684    0.409    0.214  169.417
  440.250   96.567    8.033    0.390    0.219  171.396
  440.500   98.971    8.727    0.398    0.244  172.341
  440.750  100.759    9.925    0.400    0.268  172.777
  441.000   97.366   11.289    0.366    0.222  171.176
  441.250   92.746   12.957    0.342    0.169  168.074
  441.500   83.845   14.600    0.293    0.095  164.446
  441.750   75.861   16.152    0.231    0.094  160.809
  442.000   69.709   16.901    0.270    0.164  159.217
  442.250   71.202   16.582    0.328    0.199  159.152
  442.500   77.271   14.427    0.367    0.230  159.596
  442.750   86.699   11.337    0.388    0.234  159.014
  443.000   89.404   10.819    0.395    0.230  158.957
  443.250   91.202   10.515    0.387    0.233  157.849
  443.500   95.744   10.411    0.396    0.227  157.792
  443.750   99.059   10.695    0.398    0.209  157.727
  444.000   95.666   10.781    0.398    0.207  157.654
  444.250   92.873   11.083    0.396    0.210  158.106
  444.500   91.908   12.260    0.392    0.210  158.550
  444.750   90.046   12.951    0.380    0.205  158.485
  445.000   86.948   14.064    0.365    0.193  158.403
  445.250   83.540   15.273    0.359    0.180  158.863
  445.500   81.674   16.738    0.364    0.167  162.353
  445.750   82.556   17.198    0.325    0.126  164.324
  446.000   80.073   17.343    0.300    0.057  162.740
  446.250   71.784   17.331    0.280    0.030  161.649
  446.500   66.858   16.387    0.258    0.001  165.122
  446.750   72.011   14.657    0.262    0.049  168.127
  447.000   91.207   12.988    0.331    0.097  168.563
  447.250   95.143   11.944    0.371    0.172  167.488
  447.500   99.384   10.982    0.389    0.181  166.413
  447.750  101.483   10.774    0.384    0.177  165.831
  448.000  102.661   10.766    0.372    0.182  163.722
  448.250  104.444   10.760    0.370    0.196  164.157
  448.500  103.494   11.053    0.369    0.202  166.145
  448.750  101.312   11.047    0.370    0.209  167.606
  449.000   99.751   10.937    0.368    0.211  166.523
  449.250   98.490   10.532    0.367    0.209  166.450
  449.500   99.978   10.142    0.369    0.199  166.886
  449.750  101.461    9.677    0.378    0.184  167.839
  450.000  105.370    8.508    0.383    0.180  167.506
  450.250  108.082    8.424    0.400    0.175  169.495
  450.500  110.791    8.578    0.403    0.175  170.477
  450.750  111.380    8.818    0.415    0.183  171.445
  451.000  103.158    9.321    0.418    0.216  172.937
  451.250  101.014    9.852    0.394    0.234  172.902
  451.500  103.116   10.128    0.390    0.228  170.838
  451.750  103.089   10.217    0.408    0.214  171.807
  452.000  101.859   10.022    0.419    0.204  172.286
  452.250   99.105    9.832    0.418    0.233  172.251
  452.500   94.226    9.378    0.412    0.232  172.216
  452.750   96.027    8.696    0.405    0.219  172.683
  453.000  109.366    8.451    0.412    0.203  173.656
  453.250  122.402    8.368    0.416    0.185  173.621
  453.500  125.114    8.683    0.409    0.187  172.072
  453.750  108.086    9.528    0.395    0.204  168.996
  454.000   94.097   11.919    0.380    0.191  166.426
  454.250   79.195   16.679    0.327    0.155  166.400
  454.500   73.101   21.059    0.263    0.110  167.879
  454.750   69.127   25.611    0.208    0.089  167.844
  455.000   69.716   27.585    0.280    0.105  167.303
  455.250   73.339   28.621    0.343    0.129  166.256
  455.500   80.904   28.341    0.379    0.162  165.209
  455.750   82.100   26.036    0.383    0.185  164.668
  456.000   80.260   23.700    0.379    0.201  166.142
  456.250   81.752   21.981    0.357    0.228  167.119
  456.500   89.327   20.384    0.354    0.239  167.084
  456.750   96.591   19.083    0.365    0.246  166.041
  457.000   95.965   17.863    0.392    0.245  165.496
  457.250  100.803   17.359    0.387    0.233  165.465
  457.500  104.729   17.359    0.401    0.217  164.409
  457.750  100.148   17.017    0.408    0.188  163.367
  458.000   96.180   16.852    0.412    0.226  162.319
  458.250   96.159   17.483    0.399    0.230  161.774
  458.500   96.444   18.310    0.373    0.227  160.221
  458.750   92.476   18.820    0.354    0.223  158.161
  459.000   84.251   18.988    0.346    0.218  156.604
  459.250   82.408   19.516    0.350    0.204  157.581
  459.500   76.317   20.059    0.360    0.188  160.578
  459.750   75.987   20.620    0.368    0.172  164.086
  460.000   80.827   21.394    0.361    0.182  164.565
  460.250   82.020   23.258    0.311    0.169  165.036
  460.500   74.105   24.819    0.232    0.116  164.997
  460.750   66.189   28.009    0.196    0.089  165.464
  461.000   66.469   30.739    0.165    0.054  166.436
  461.250   73.128   36.012    0.155   -0.005  166.916
  461.500   83.732   37.016    0.191   -0.001  166.881
  461.750   87.357   35.641    0.213    0.015  166.842
  462.000   85.818   31.542    0.216    0.020  166.807
  462.250   94.904   26.394    0.229    0.039  167.278
  462.500  101.872   22.502    0.267    0.104  167.749
  462.750  108.227   19.548    0.323    0.155  168.722
  463.000  108.808   16.821    0.405    0.186  170.205
  463.250  106.057   15.454    0.403    0.195  171.186
  463.500  104.819   14.603    0.398    0.212  171.151
  463.750  105.712   14.061    0.384    0.207  170.610
  464.000  105.387   13.410    0.380    0.208  170.061
  464.250  104.146   13.031    0.396    0.205  169.524
  464.500  103.819   13.031    0.410    0.199  169.489
  464.750  105.018   12.897    0.421    0.203  168.948
  465.000  105.908   12.534    0.420    0.206  167.390
  465.250  108.619   12.526    0.400    0.206  166.849
  465.500  107.991   12.636    0.373    0.201  168.834
  465.750  105.235   12.867    0.373    0.200  170.317
