~VERSION INFORMATION
 VERS.                 2.0:   CWLS LOG ASCII STANDARD -VERSION 2.0
 WRAP.                  NO:   ONE LINE PER DEPTH STEP
~WELL INFORMATION BLOCK
#MNEM.UNIT           DATA                    DESCRIPTION OF MNEMONIC
#---------    -------------------            -------------------------------
# Generated from Intellog Unique Number	CX_WELLS/WELL/2743
WELL.         THORNBURY                      : Well_name    - WELL
LOC .         00/01-09-080-13W4/0            : Location     - LOCATION
UWI .         00/01-09-080-13W4/0            : Uwi          - UNIQUE WELL ID
ENTR.         T                              : Entered      - ENTERED BY
SRVC.         SCHLUMBERGER                   : Scn          - SERVICE COMPANY
STRT.M        270                            : top_depth    - START DEPTH
STOP.M        500                            : bot_depth    - STOP DEPTH
STEP.M        0.25                           : increment    - STEP LENGTH
 NULL. -999.2500:NULL Value
~CURVE INFORMATION BLOCK
#MNEM UNIT       ERCB CURVE CODE    CURVE DESCRIPTION
#-----------   ------------------   ----------------------------------
DEPT.M        00 001 00 00         : DEPTH        - DEPTH
GR  .API      00 310 00 00         : GR           - GAMMA RAY
NPHI.V/V      00 330 00 00         : PHIN         - NEUTRON POROSITY (SANDSTONE)
DPHI.V/V      00 890 00 00         : PHID         - DENSITY POROSITY (SANDSTONE)
ILD .OHMM     00 120 00 00         : RESD         - DEEP RESISTIVITY (DLL)
~PARAMETER INFORMATION
#MNEM.UNIT           DATA             DESCRIPTION OF MNEMONIC
#---------         -----------     ------------------------------
GL  .M        681.9                : gl           - GROUND LEVEL ELEVATION
EREF.M        685.9                : kb           - ELEVATION OF DEPTH REFERENCE
DATM.M        685.9                : datum        - DATUM ELEVATION
TDD .M        504                  : tdd          - TOTAL DEPTH DRILLER
RUN .         ONE                  : Run          - RUN NUMBER
ENG .         BILL                 : Engineer     - RECORDING ENGINEER
WIT .         JIM                  : Witness      - WITNESSED BY
MUD .         GEL                  : Mud_type     - MUD TYPE
MATR.         SANDSTONE            : Logunit      - NEUTRON MATRIX
TMAX.C        30                   : BHT          - MAXIMUM RECORDED TEMPERATURE
BHTD.M        504                  : BHTDEP       - MAXIMUM RECORDED TEMPERATURE
MATR.         1                    : LOGUNIT      - NEUTRON MATRIX
RMT .C        20                   : MDTP         - TEMPERATURE OF MUD
NEUT.         1                    : NEUTRON      - NEUTRON TYPE
RESI.         3.5                  : RESIST       - RESISTIVITY TYPE
RMC .OHMM     2.3                  : RMC          - RESISTIVITY OF MUD CAKE
RMF .OHMM     4.5                  : RMF          - RESISTIVITY OF MUD FILTRATE
SUFT.C        4                    : SUFT         - SURFACE TEMPERATURE
~A  DEPTH       GR     PHIN     PHID     RESD
# ...
  444.000  108.077    0.395    0.197   15.797
  444.250  110.548    0.396    0.202   18.427
  444.500  108.216    0.394    0.212   20.668
  444.750  106.456    0.387    0.220   23.192
  445.000  101.097    0.385    0.227   23.684
  445.250   90.904    0.374    0.215   22.442
  445.500   80.125    0.365    0.179   22.058
  445.750   82.612    0.360    0.170   22.538
  446.000   83.878    0.358    0.174   23.003
  446.250   83.940    0.353    0.204   25.372
  446.500   83.400    0.359    0.213   26.389
  446.750   82.860    0.365    0.229   27.999
  447.000   79.910    0.361    0.220   29.107
  447.250   77.547    0.356    0.204   29.724
  447.500   72.189    0.352    0.230   30.370
  447.750   68.668    0.363    0.247   30.435
  448.000   68.699    0.375    0.255   30.533
  448.250   71.170    0.370    0.249   30.565
  448.500   77.270    0.355    0.237   30.075
  448.750   76.745    0.348    0.232   27.964
  449.000   76.205    0.347    0.234   26.469
  449.250   76.252    0.354    0.238   25.080
  449.500   78.738    0.358    0.239   24.178
  449.750   80.591    0.361    0.233   23.802
  450.000   85.487    0.362    0.228   24.281
  450.250   91.572    0.360    0.209   25.282
  450.500   96.468    0.361    0.210   26.295
  450.750   85.071    0.361    0.223   29.508
  451.000   76.701    0.359    0.241   33.779
  451.250   68.315    0.349    0.274   37.177
  451.500   62.354    0.331    0.292   40.175
  451.750   56.393    0.304    0.304   45.131
  452.000   60.069    0.318    0.285   46.941
  452.250   64.965    0.337    0.277   49.778
  452.500   63.235    0.348    0.281   47.166
  452.750   58.479    0.359    0.281   42.189
  453.000   54.912    0.366    0.279   38.455
  453.250   56.178    0.373    0.278   33.142
  453.500   57.445    0.374    0.277   30.800
  453.750   58.124    0.374    0.277   30.882
  454.000   59.993    0.371    0.273   32.171
  454.250   65.476    0.369    0.267   32.819
  454.500   72.163    0.366    0.257   33.533
  454.750   79.452    0.365    0.233   34.896
  455.000   80.117    0.365    0.236   36.314
  455.250   74.773    0.365    0.234   37.065
  455.500   71.808    0.361    0.222   36.450
  455.750   70.064    0.359    0.179   33.892
  456.000   71.963    0.364    0.159   29.765
  456.250   73.817    0.371    0.183   27.131
  456.500   76.906    0.381    0.205   22.529
  456.750   77.570    0.382    0.232   19.775
  457.000   78.836    0.382    0.237   18.368
  457.250   80.087    0.378    0.228   16.438
  457.500   83.161    0.372    0.200   14.999
  457.750  110.372    0.369    0.183   15.031
  458.000  113.430    0.368    0.185   14.514
  458.250  108.674    0.367    0.195   14.258
  458.500  105.153    0.365    0.192   13.510
  458.750  104.582    0.363    0.184   13.546
  459.000  101.030    0.360    0.168   13.567
  459.250   95.671    0.359    0.160   13.863
  459.500   93.926    0.356    0.155   14.418
  459.750  100.011    0.355    0.151   15.298
  460.000  107.903    0.356    0.155   16.214
  460.250  117.015    0.358    0.163   17.865
  460.500  122.497    0.362    0.170   19.305
  460.750  118.946    0.364    0.193   20.862
  461.000  106.962    0.365    0.210   23.882
  461.250  102.823    0.365    0.211   24.362
  461.500  100.491    0.365    0.210   26.327
  461.750   99.318    0.365    0.209   30.154
  462.000   96.971    0.366    0.213   31.942
  462.250   91.010    0.368    0.226   36.527
  462.500   85.049    0.371    0.222   43.375
  462.750   81.481    0.372    0.208   51.533
  463.000   76.123    0.362    0.178   61.194
  463.250   71.366    0.274    0.213   61.325
  463.500   66.008    0.240    0.258   52.852
  463.750   61.251    0.227    0.291   44.698
  464.000   57.097    0.209    0.310   40.024
  464.250   58.364    0.209    0.322   37.903
  464.500   61.437    0.228    0.297   37.275
  464.750   64.510    0.301    0.254   40.302
  465.000   71.229    0.333    0.247   41.896
  465.250   70.688    0.334    0.247   47.909
  465.500   70.750    0.329    0.251   54.814
  465.750   67.183    0.322    0.255   52.898
  466.000   60.620    0.307    0.290   54.078
  466.250   55.276    0.269    0.297   58.407
  466.500   56.543    0.268    0.291   65.543
  466.750   59.601    0.306    0.284   72.137
  467.000   62.072    0.332    0.273   85.706
  467.250   63.941    0.339    0.261   98.007
  467.500   60.991    0.343    0.262  114.207
  467.750   49.038    0.341    0.276  146.318
  468.000   47.865    0.335    0.317  167.408
  468.250   46.120    0.205    0.345  164.632
  468.500   43.773    0.180    0.369  161.816
  468.750   38.429    0.169    0.374  162.161
  469.000   34.260    0.157    0.377  134.583
  469.250   30.121    0.152    0.383  105.552
  469.500   28.376    0.146    0.390   86.011
  469.750   27.234    0.145    0.391   76.975
  470.000   26.694    0.149    0.389   72.859
  470.250   29.149    0.163    0.384   73.014
  470.500   32.825    0.188    0.362   75.982
  470.750   35.914    0.202    0.350   82.109
  471.000   32.362    0.208    0.368   88.730
  471.250   35.435    0.368    0.365   94.094
  471.500   39.111    0.375    0.336   94.346
  471.750   33.752    0.371    0.298   78.259
  472.000   28.996    0.358    0.309   63.770
  472.250   27.267    0.355    0.316   57.041
  472.500   29.120    0.355    0.304   49.159
  472.750   31.591    0.356    0.307   41.575
  473.000   30.448    0.361    0.314   33.842
  473.250   26.912    0.367    0.317   26.046
  473.500   25.183    0.373    0.318   20.047
  473.750   25.816    0.375    0.320   15.420
  474.000   39.175    0.371    0.319   15.748
  474.250   36.225    0.370    0.310   17.360
  474.500   33.847    0.370    0.296   19.480
  474.750   29.693    0.370    0.303   21.441
  475.000   27.361    0.369    0.310   24.998
  475.250   26.219    0.369    0.312   25.064
  475.500   28.072    0.371    0.311   23.268
  475.750   30.558    0.373    0.304   19.679
  476.000   32.412    0.368    0.298   12.543
  476.250   40.921    0.354    0.289    8.948
  476.500   54.249    0.345    0.269    6.386
  476.750   48.273    0.348    0.275    5.824
  477.000   33.277    0.356    0.296    5.212
  477.250   27.317    0.359    0.315    4.939
  477.500   21.958    0.360    0.325    4.857
  477.750   20.213    0.361    0.325    4.867
  478.000   21.479    0.362    0.318    4.968
  478.250   27.580    0.358    0.302    4.978
  478.500   25.850    0.356    0.292    4.992
  478.750   25.279    0.354    0.291    5.002
  479.000   24.136    0.356    0.319    4.922
  479.250   24.198    0.359    0.328    4.927
  479.500   26.669    0.360    0.321    4.938
  479.750   28.554    0.360    0.312    4.951
  480.000   27.411    0.362    0.313    4.964
  480.250   26.268    0.362    0.314    4.980
  480.500   25.728    0.363    0.315    4.986
  480.750   24.585    0.364    0.315    4.996
  481.000   24.648    0.367    0.315    5.102
  481.250   24.725    0.365    0.315    5.110
  481.500   25.991    0.361    0.321    5.221
  481.750   28.463    0.357    0.324    5.329
  482.000   31.552    0.354    0.313    5.546
  482.250   32.200    0.352    0.295    5.771
  482.500   31.058    0.353    0.280    6.244
  482.750   30.517    0.352    0.281    6.379
  483.000   31.181    0.348    0.284    6.635
  483.250   30.657    0.357    0.283    7.036
  483.500   30.719    0.362    0.276    7.744
  483.750   31.383    0.353    0.265    9.029
  484.000   36.263    0.351    0.245   10.132
  484.250   47.769    0.357    0.205   11.586
  484.500  109.311    0.369    0.182   12.521
  484.750   96.107    0.375    0.186   13.029
  485.000   87.134    0.360    0.178   13.057
  485.250   87.196    0.354    0.163   12.854
  485.500   92.694    0.352    0.155   13.127
  485.750  102.393    0.356    0.154   13.398
  486.000  117.528    0.361    0.152   13.943
  486.250  110.362    0.364    0.147   14.239
  486.500   85.715    0.370    0.141   14.269
  486.750   76.124    0.381    0.119   14.040
  487.000   72.588    0.362    0.098   13.542
  487.250   82.889    0.369    0.110   13.318
