~VERSION INFORMATION
 VERS.                 2.0:   CWLS LOG ASCII STANDARD -VERSION 2.0
 WRAP.                  NO:   ONE LINE PER DEPTH STEP
~WELL INFORMATION BLOCK
#MNEM.UNIT           DATA                    DESCRIPTION OF MNEMONIC
#---------    -------------------            -------------------------------
# Generated from Intellog Unique Number	CC_84_87/WELL/1043
NULL.         -999.25                        : NULL_VALUE
WELL.         PETROREP ET AL HOUSE           : Well_name    - WELL
LOC .         01-03-085-15W4                 : Location     - LOCATION          
UWI .         00/01-03-085-15W400            : Uwi          - UNIQUE WELL ID    
ENTR.         DW                             : Entered      - ENTERED BY        
SRVC.         COMPUTALOG                     : Scn          - SERVICE COMPANY   
DATE.         11 JAN 85                      : Date         - LOG DATE
STRT.M        97                             : top_depth    - START DEPTH       
STOP.M        252.102                        : bot_depth    - STOP DEPTH        
STEP.M        0.3                            : increment    - STEP LENGTH       
~CURVE INFORMATION BLOCK
#MNEM UNIT       ERCB CURVE CODE    CURVE DESCRIPTION
#-----------   ------------------   ----------------------------------
DEPT.M        00 001 00 00         : DEPTH        - DEPTH                       
DPHI.V/V      00 890 00 00         : PHID         - DENSITY POROSITY (LIMESTONE)
NPHI.V/V      00 330 00 00         : PHIN         - NEUTRON POROSITY (LIMESTONE)
GR  .API      00 310 00 00         : GR           - GAMMA RAY                   
ILD .OHMM     00 120 00 00         : RESD         - DEEP RESISTIVITY (DIL)      
~PARAMETER INFORMATION       
#MNEM.UNIT           DATA             DESCRIPTION OF MNEMONIC
#---------         -----------     ------------------------------
GL  .M        528.69               : gl           - GROUND LEVEL ELEVATION      
EREF.M        532.68               : kb           - ELEVATION OF DEPTH REFERENCE
DATM.M        532.68               : datum        - DATUM ELEVATION             
TDD .M        252                  : tdd          - TOTAL DEPTH DRILLER         
RUN .         ONE                  : Run          - RUN NUMBER                  
ENG .         BILL                 : Engineer     - RECORDING ENGINEER          
WIT .         JIM                  : Witness      - WITNESSED BY                
MUD .         GEL                  : Mud_type     - MUD TYPE                    
MATR.         LIMESTONE            : Logunit      - NEUTRON MATRIX              
TMAX.C        20                   : BHT          - MAXIMUM RECORDED TEMPERATURE
BHTD.M        252                  : BHTDEP       - MAXIMUM RECORDED TEMPERATURE
MATR.         1                    : LOGUNIT      - NEUTRON MATRIX              
RMT .C        25                   : MDTP         - TEMPERATURE OF MUD          
NEUT.         1                    : NEUTRON      - NEUTRON TYPE                
RESI.         0                    : RESIST       - RESISTIVITY TYPE            
RMC .OHMM     0.25                 : RMC          - RESISTIVITY OF MUD CAKE     
RMF .OHMM     0.25                 : RMF          - RESISTIVITY OF MUD FILTRATE 
SUFT.C        15                   : SUFT         - SURFACE TEMPERATURE         
~A  DEPTH     PHID     PHIN       GR     RESD
# ...
  149.201    0.287    0.408   59.657    9.999
  149.501    0.303    0.399   57.126   13.868
  149.801    0.307    0.393   61.532   14.412
  150.101    0.303    0.395   71.612   11.889
  150.401    0.294    0.418   74.124    9.998
  150.701    0.286    0.432   76.009    7.936
  151.001    0.278    0.428   83.567    7.348
  151.301    0.272    0.442   93.649    6.179
  151.601    0.274    0.440   87.334    5.505
  151.901    0.279    0.427   82.912    5.505
  152.201    0.272    0.425   81.010    5.946
  152.501    0.271    0.450   79.110    6.546
  152.801    0.278    0.497   85.407    6.802
  153.101    0.272    0.468   91.704    7.069
  153.401    0.267    0.431   86.020    6.934
  153.701    0.276    0.450   89.164    6.802
  154.001    0.271    0.474   93.568    6.297
  154.301    0.262    0.487   93.562    6.059
  154.601    0.259    0.475   89.139    5.944
  154.901    0.255    0.426   85.346    5.830
  155.201    0.267    0.413   87.229    5.719
  155.501    0.259    0.451   91.633    5.610
  155.801    0.262    0.464   88.474    5.719
  156.101    0.283    0.446   74.592    6.176
  156.401    0.301    0.422   71.427    6.670
  156.701    0.287    0.453   77.097    6.931
  157.001    0.266    0.453   95.376    6.295
  157.301    0.243    0.436   99.150    5.502
  157.601    0.234    0.431   77.701    6.417
  157.901    0.326    0.432   77.059    8.083
  158.201    0.340    0.424   79.575   10.997
  158.501    0.326    0.412   84.610   13.589
  158.801    0.288    0.414   90.278   14.396
  159.101    0.270    0.430   97.837   12.106
  159.401    0.261    0.435   95.307   10.786
  159.701    0.249    0.415   93.406    9.796
  160.001    0.261    0.397   97.809    9.246
  160.301    0.262    0.387   99.063    9.246
  160.601    0.258    0.463   99.055    9.425
  160.901    0.258    0.473   96.522    9.245
  161.201    0.263    0.460   93.359    9.069
  161.501    0.266    0.439   92.722    8.896
  161.801    0.247    0.428   94.604    8.726
  162.101    0.244    0.419   98.380    8.726
  162.401    0.248    0.415   99.633    8.396
  162.701    0.246    0.429   94.580    7.773
  163.001    0.214    0.415   90.788    7.773
  163.301    0.202    0.401   93.300    8.078
  163.601    0.256    0.440   90.768    8.557
  163.901    0.285    0.416   82.562    8.557
  164.201    0.279    0.397   81.294    8.077
  164.501    0.253    0.414   86.330    8.234
  164.801    0.242    0.432   85.691    9.420
  165.101    0.231    0.418   71.808   10.371
  165.401    0.214    0.420   74.953   10.173
  165.701    0.237    0.469   95.124    8.555
  166.001    0.262    0.475   98.897    6.791
  166.301    0.279    0.464   95.736    5.935
  166.601    0.308    0.442   89.423    6.050
  166.901    0.310    0.400   78.063    6.534
  167.201    0.238    0.339   65.442    8.074
  167.501    0.151    0.341   85.613   10.171
  167.801    0.242    0.393   94.432    8.719
  168.101    0.285    0.425   91.901    7.919
  168.401    0.302    0.441   78.650    8.390
  168.701    0.307    0.439   74.858    9.599
  169.001    0.312    0.422   81.154   10.169
  169.301    0.314    0.418   83.037   10.366
  169.601    0.312    0.419   84.921    9.974
  169.901    0.304    0.430   88.696    9.414
  170.201    0.283    0.448   91.209    9.235
  170.501    0.265    0.441   89.940    8.886
  170.801    0.266    0.420   84.886    8.716
  171.101    0.266    0.417   89.290    8.550
  171.401    0.264    0.467   91.806    8.070
  171.701    0.260    0.486   90.534    7.765
  172.001    0.260    0.475   89.895    7.472
  172.301    0.269    0.432   92.410    7.471
  172.601    0.277    0.448  100.599    7.328
  172.901    0.265    0.456  103.113    7.052
  173.201    0.261    0.456   92.384    6.785
  173.501    0.272    0.451   87.330    6.917
  173.801    0.275    0.445   89.844    7.763
  174.101    0.270    0.440   87.942    8.713
  174.401    0.263    0.417   94.240    9.778
  174.701    0.301    0.392   97.386   10.359
  175.001    0.292    0.395   92.963    9.591
  175.301    0.248    0.398   91.063    9.053
  175.601    0.299    0.375   92.945    9.229
  175.901    0.340    0.360   93.567   10.358
  176.201    0.317    0.359   91.036   12.081
  176.501    0.299    0.399   81.567   13.300
  176.801    0.317    0.467   84.081   13.558
  177.101    0.329    0.460   87.225   13.299
  177.401    0.334    0.430   85.957   13.557
  177.701    0.321    0.382   69.553   14.926
  178.001    0.240    0.342   61.975   17.747
  178.301    0.076    0.229   65.751   20.700
  178.601    0.039    0.195   67.002   28.161
  178.901    0.037    0.190   65.735   41.378
  179.201    0.052    0.265   67.616   36.864
  179.501    0.181    0.326   70.762   27.095
  179.801    0.317    0.375   75.167   19.535
  180.101    0.324    0.444   78.310   14.084
  180.401    0.326    0.440   80.195   11.397
  180.701    0.322    0.418   76.403   10.154
  181.001    0.223    0.368   61.259   10.154
  181.301    0.178    0.357   67.555   10.552
  181.601    0.254    0.381   79.529   11.396
  181.901    0.315    0.403   79.519   11.842
  182.201    0.322    0.418   76.359   12.072
  182.501    0.319    0.427   76.349   12.071
  182.801    0.304    0.398   78.862   12.071
  183.101    0.280    0.389   79.484   11.615
  183.401    0.269    0.419   81.367   11.614
  183.701    0.286    0.434   82.618   11.175
  184.001    0.288    0.426   83.241   10.548
  184.301    0.277    0.432   83.234   10.548
  184.601    0.287    0.454   80.072   11.174
  184.901    0.307    0.450   76.281   11.612
  185.201    0.311    0.430   74.378   12.067
  185.501    0.311    0.434   75.632   12.540
  185.801    0.304    0.435   81.299   12.784
  186.101    0.286    0.427   85.704   12.539
  186.401    0.265    0.416   86.325   11.835
  186.701    0.263    0.411   86.948   10.750
  187.001    0.262    0.438   91.353    9.216
  187.301    0.257    0.443   98.282    8.533
  187.601    0.256    0.414   98.903    6.905
  187.901    0.246    0.383   93.848    5.174
  188.201    0.222    0.409   91.947    5.376
  188.501    0.215    0.435   92.568    5.919
  188.801    0.243    0.442   93.195    6.904
  189.101    0.260    0.457   95.707    7.748
  189.401    0.252    0.467   96.328    8.052
  189.701    0.237    0.449   90.645    8.052
  190.001    0.246    0.455   90.006    8.051
  190.301    0.236    0.442   95.671    8.208
  190.601    0.227    0.429   98.184    8.367
  190.901    0.231    0.430   96.916    8.695
  191.201    0.252    0.439   89.972    9.572
  191.501    0.285    0.418   79.242   10.539
  191.801    0.317    0.352   83.646   12.058
  192.101    0.332    0.312   86.159   15.189
  192.401    0.334    0.308   85.522   17.047
  192.701    0.315    0.361   81.729   17.046
  193.001    0.290    0.398   80.460   15.187
  193.301    0.272    0.411   81.081   13.531
  193.601    0.265    0.418   76.028   12.528
  193.901    0.284    0.422   74.128   11.825
  194.201    0.305    0.418   77.903   11.824
  194.501    0.299    0.413   82.307   12.770
  194.801    0.260    0.414   84.823   13.017
  195.101    0.259    0.406   82.921   12.287
  195.401    0.271    0.390   79.129   11.822
  195.701    0.254    0.384   84.165   11.822
  196.001    0.239    0.394   86.677   12.051
  196.301    0.288    0.389   87.931   13.015
  196.601    0.294    0.383   92.968   13.267
  196.901    0.268    0.383   94.221   12.766
  197.201    0.242    0.391   84.752   11.374
  197.501    0.275    0.399   80.330   11.819
  197.801    0.297    0.399   84.735   12.764
  198.101    0.298    0.395   91.033   13.012
  198.401    0.266    0.409   91.022   12.764
  198.701    0.254    0.415   87.232   12.281
  199.001    0.277    0.386   84.699   12.519
  199.301    0.284    0.386   84.691   12.519
  199.601    0.269    0.412   86.575   12.518
  199.901    0.245    0.421   89.719   12.046
  200.201    0.245    0.427   85.297   11.153
  200.501    0.227    0.440   93.485   10.731
  200.801    0.236    0.450  101.675    9.025
  201.101    0.240    0.442  110.495    6.142
