~VERSION INFORMATION
 VERS.                 2.0:   CWLS LOG ASCII STANDARD -VERSION 2.0
 WRAP.                  NO:   ONE LINE PER DEPTH STEP
~WELL INFORMATION BLOCK
#MNEM.UNIT           DATA                    DESCRIPTION OF MNEMONIC
#---------    -------------------            -------------------------------
# Generated from Intellog Unique Number	CW_79_81/WELL/2440
WELL.         01-08-080-21W4                 : Well_name    - WELL
LOC .         00/01-08-080-21W4/0            : Location     - LOCATION
UWI .         00/01-08-080-21W4/0            : Uwi          - UNIQUE WELL ID
ENTR.         MAX                            : Entered      - ENTERED BY
SRVC.         SCHLUMBERGER                   : Scn          - SERVICE COMPANY
STRT.M        215                            : top_depth    - START DEPTH
STOP.M        449.75                         : bot_depth    - STOP DEPTH
STEP.M        0.25                           : increment    - STEP LENGTH
 NULL. -999.2500:NULL Value
~CURVE INFORMATION BLOCK
#MNEM UNIT       ERCB CURVE CODE    CURVE DESCRIPTION
#-----------   ------------------   ----------------------------------
DEPT.M        00 001 00 00         : DEPTH        - DEPTH
ILD .OHMM     00 120 00 00         : RESD         - DEEP RESISTIVITY (DIL)
NPHI.V/V      00 330 00 00         : PHIN         - NEUTRON POROSITY (SANDSTONE)
DPHI.V/V      00 890 00 00         : PHID         - DENSITY POROSITY (SANDSTONE)
GR  .API      00 310 00 00         : GR           - GAMMA RAY
~PARAMETER INFORMATION
#MNEM.UNIT           DATA             DESCRIPTION OF MNEMONIC
#---------         -----------     ------------------------------
GL  .M        583.3                : gl           - GROUND LEVEL ELEVATION
EREF.M        587                  : kb           - ELEVATION OF DEPTH REFERENCE
DATM.M        583.3                : datum        - DATUM ELEVATION
TDD .M        507                  : tdd          - TOTAL DEPTH DRILLER
RUN .         ONE                  : Run          - RUN NUMBER
ENG .         BILL                 : Engineer     - RECORDING ENGINEER
WIT .         JIM                  : Witness      - WITNESSED BY
MUD .         GEL                  : Mud_type     - MUD TYPE
MATR.         SANDSTONE            : Logunit      - NEUTRON MATRIX
TMAX.C        23                   : BHT          - MAXIMUM RECORDED TEMPERATURE
BHTD.M        507                  : BHTDEP       - MAXIMUM RECORDED TEMPERATURE
MATR.         1                    : LOGUNIT      - NEUTRON MATRIX
RMT .C        15                   : MDTP         - TEMPERATURE OF MUD
NEUT.         1                    : NEUTRON      - NEUTRON TYPE
RESI.         0                    : RESIST       - RESISTIVITY TYPE
RMC .OHMM     2.33                 : RMC          - RESISTIVITY OF MUD CAKE
RMF .OHMM     2.19                 : RMF          - RESISTIVITY OF MUD FILTRATE
SUFT.C        -15                  : SUFT         - SURFACE TEMPERATURE
~A  DEPTH     RESD     PHIN     PHID       GR
# ...
  302.000   17.746    0.401    0.225   47.354
  302.250   18.111    0.391    0.200   49.044
  302.500   18.783    0.353    0.151   51.408
  302.750   19.454    0.277    0.072   54.811
  303.000   19.957    0.218   -0.005   58.758
  303.250   20.209    0.305    0.015   61.898
  303.500   19.595    0.379    0.105   61.881
  303.750   19.020    0.410    0.154   59.021
  304.000   18.508    0.422    0.184   55.663
  304.250   18.078    0.425    0.201   52.352
  304.500   17.745    0.424    0.210   49.342
  304.750   17.495    0.426    0.211   46.502
  305.000   17.385    0.420    0.209   46.073
  305.250   17.079    0.413    0.209   47.195
  305.500   16.778    0.406    0.214   48.848
  305.750   16.484    0.402    0.220   50.561
  306.000   16.220    0.402    0.224   52.037
  306.250   16.056    0.410    0.228   53.416
  306.500   16.180    0.424    0.234   54.703
  306.750   16.282    0.440    0.234   55.278
  307.000   16.382    0.434    0.233   56.404
  307.250   16.482    0.424    0.234   57.787
  307.500   16.558    0.419    0.236   59.135
  307.750   16.535    0.420    0.235   60.248
  308.000   16.410    0.426    0.234   60.675
  308.250   16.157    0.432    0.237   60.538
  308.500   15.874    0.421    0.235   60.048
  308.750   15.590    0.403    0.226   57.650
  309.000   15.263    0.382    0.207   53.393
  309.250   14.664    0.364    0.171   48.522
  309.500   14.043    0.360    0.138   46.529
  309.750   13.413    0.377    0.121   47.412
  310.000   12.857    0.405    0.131   48.645
  310.250   12.600    0.405    0.146   49.408
  310.500   12.711    0.370    0.155   49.585
  310.750   13.339    0.318    0.154   49.794
  311.000   14.227    0.270    0.140   49.975
  311.250   15.354    0.225    0.086   50.150
  311.500   16.886    0.186    0.019   50.075
  311.750   19.640    0.154   -0.027   49.297
  312.000   24.301    0.125   -0.045   47.950
  312.250   30.761    0.085   -0.057   46.429
  312.500   35.857    0.064   -0.071   44.835
  312.750   40.129    0.044   -0.090   43.158
  313.000   43.838    0.034   -0.103   42.369
  313.250   46.690    0.033   -0.109   42.447
  313.500   48.493    0.041   -0.111   43.034
  313.750   49.003    0.052   -0.122   43.474
  314.000   48.076    0.048   -0.145   43.662
  314.250   48.081    0.037   -0.147   43.075
  314.500   48.087    0.028   -0.153   42.490
  314.750   48.165    0.021   -0.154   41.907
  315.000   48.351    0.015   -0.147   41.358
  315.250   48.719    0.007   -0.137   40.902
  315.500   49.094    0.001   -0.146   40.840
  315.750   49.406    0.002   -0.163   40.625
  316.000   49.269    0.016   -0.165   40.844
  316.250   48.200    0.037   -0.147   41.706
  316.500   45.711    0.068   -0.104   43.290
  316.750   39.974    0.127   -0.011   46.137
  317.000   33.503    0.195    0.081   49.081
  317.250   25.521    0.278    0.118   51.943
  317.500   22.451    0.345    0.167   52.796
  317.750   19.549    0.375    0.194   52.785
  318.000   16.875    0.374    0.197   52.791
  318.250   15.475    0.377    0.198   53.709
  318.500   14.877    0.385    0.204   55.075
  318.750   14.529    0.396    0.213   56.955
  319.000   14.123    0.398    0.213   59.553
  319.250   13.701    0.397    0.207   61.953
  319.500   12.947    0.397    0.195   64.036
  319.750   10.994    0.406    0.166   66.727
  320.000    9.243    0.431    0.133   67.945
  320.250    8.354    0.448    0.125   68.307
  320.500    7.952    0.451    0.130   68.420
  320.750    7.714    0.442    0.129   68.580
  321.000    7.584    0.430    0.120   68.942
  321.250    7.781    0.427    0.121   69.357
  321.500    8.328    0.410    0.115   68.549
  321.750    9.033    0.395    0.111   68.201
  322.000    9.656    0.385    0.114   68.528
  322.250   10.090    0.379    0.123   69.318
  322.500   10.314    0.378    0.134   70.169
  322.750   10.413    0.381    0.144   70.656
  323.000   10.348    0.394    0.148   71.463
  323.250    9.743    0.410    0.126   74.289
  323.500    9.111    0.416    0.112   76.689
  323.750    8.592    0.414    0.101   78.284
  324.000    8.240    0.409    0.093   78.873
  324.250    8.094    0.407    0.082   78.124
  324.500    8.198    0.417    0.073   76.591
  324.750    8.456    0.419    0.074   74.992
  325.000    8.601    0.426    0.082   74.011
  325.250    8.666    0.431    0.090   73.450
  325.500    8.693    0.431    0.093   73.234
  325.750    8.731    0.423    0.094   73.502
  326.000    8.787    0.411    0.097   73.977
  326.250    8.873    0.402    0.111   74.106
  326.500    9.020    0.401    0.116   73.979
  326.750    9.106    0.400    0.116   73.392
  327.000    9.056    0.401    0.111   72.642
  327.250    8.801    0.418    0.102   72.665
  327.500    8.534    0.430    0.097   73.338
  327.750    8.311    0.430    0.099   74.032
  328.000    8.148    0.431    0.099   73.499
  328.250    8.078    0.434    0.102   72.131
  328.500    8.138    0.438    0.110   70.307
  328.750    8.486    0.435    0.125   67.995
  329.000    9.037    0.437    0.133   66.002
  329.250    9.673    0.432    0.137   64.659
  329.500   10.284    0.420    0.140   63.956
  329.750   10.776    0.407    0.144   63.990
  330.000   11.019    0.399    0.147   64.651
  330.250   10.953    0.399    0.145   65.660
  330.500   11.297    0.392    0.137   65.840
  330.750   10.978    0.385    0.135   67.150
  331.000   10.234    0.383    0.129   68.389
  331.250    9.382    0.388    0.120   69.462
  331.500    8.692    0.403    0.110   70.613
  331.750    8.329    0.429    0.102   72.752
  332.000    8.171    0.420    0.096   74.383
  332.250    8.027    0.416    0.083   75.311
  332.500    7.859    0.431    0.077   75.282
  332.750    7.716    0.445    0.076   74.342
  333.000    7.638    0.445    0.076   72.539
  333.250    7.719    0.426    0.081   69.130
  333.500    8.026    0.412    0.092   65.191
  333.750    8.330    0.389    0.099   64.384
  334.000    8.673    0.390    0.114   64.027
  334.250    8.945    0.395    0.135   63.466
  334.500    9.138    0.396    0.154   62.443
  334.750    9.454    0.389    0.159   60.968
  335.000    9.818    0.379    0.151   60.309
  335.250    9.971    0.375    0.154   62.295
  335.500    9.919    0.393    0.147   62.484
  335.750    9.801    0.403    0.150   61.797
  336.000    9.697    0.393    0.164   60.656
  336.250    9.621    0.376    0.175   58.897
  336.500    9.592    0.368    0.176   58.485
  336.750    9.550    0.368    0.168   59.844
  337.000    9.388    0.364    0.160   62.027
  337.250    9.203    0.360    0.155   64.236
  337.500    9.009    0.363    0.152   66.224
  337.750    8.657    0.382    0.149   68.784
  338.000    8.238    0.397    0.145   71.234
  338.250    7.708    0.410    0.141   73.587
  338.500    7.163    0.423    0.140   75.231
  338.750    6.602    0.435    0.148   75.119
  339.000    6.066    0.439    0.162   73.299
  339.250    5.628    0.424    0.166   70.553
  339.500    5.734    0.413    0.163   68.758
  339.750    6.093    0.408    0.161   68.171
  340.000    6.667    0.402    0.160   68.084
  340.250    7.462    0.392    0.159   68.306
  340.500    8.425    0.382    0.157   68.679
  340.750    9.325    0.378    0.150   69.115
  341.000    9.267    0.392    0.142   69.302
  341.250    9.104    0.393    0.141   69.666
  341.500    8.852    0.391    0.136   69.923
  341.750    8.574    0.386    0.130   70.121
  342.000    8.314    0.381    0.127   70.235
  342.250    8.061    0.379    0.125   69.999
  342.500    7.884    0.389    0.121   69.144
  342.750    7.740    0.406    0.117   68.935
  343.000    7.602    0.418    0.112   69.437
  343.250    7.502    0.423    0.108   69.965
  343.500    7.443    0.422    0.106   70.269
  343.750    7.393    0.415    0.106   70.603
  344.000    7.360    0.407    0.105   70.930
  344.250    7.352    0.404    0.105   71.059
  344.500    7.317    0.411    0.109   70.933
  344.750    7.273    0.422    0.118   70.629
  345.000    7.255    0.430    0.130   70.126
  345.250    7.337    0.427    0.138   69.063
