~VERSION INFORMATION
 VERS.                 2.0:   CWLS LOG ASCII STANDARD -VERSION 2.0
 WRAP.                  NO:   ONE LINE PER DEPTH STEP
~WELL INFORMATION BLOCK
#MNEM.UNIT           DATA                    DESCRIPTION OF MNEMONIC
#---------    -------------------            -------------------------------
# Generated from Intellog Unique Number	CC_84_87/WELL/1043
NULL.         -999.25                        : NULL_VALUE
WELL.         PETROREP ET AL HOUSE           : Well_name    - WELL
LOC .         01-03-085-15W4                 : Location     - LOCATION          
UWI .         00/01-03-085-15W400            : Uwi          - UNIQUE WELL ID    
ENTR.         DW                             : Entered      - ENTERED BY        
SRVC.         COMPUTALOG                     : Scn          - SERVICE COMPANY   
DATE.         11 JAN 85                      : Date         - LOG DATE
STRT.M        97                             : top_depth    - START DEPTH       
STOP.M        252.102                        : bot_depth    - STOP DEPTH        
STEP.M        0.3                            : increment    - STEP LENGTH       
~CURVE INFORMATION BLOCK
#MNEM UNIT       ERCB CURVE CODE    CURVE DESCRIPTION
#-----------   ------------------   ----------------------------------
DEPT.M        00 001 00 00         : DEPTH        - DEPTH                       
DPHI.V/V      00 890 00 00         : PHID         - DENSITY POROSITY (LIMESTONE)
NPHI.V/V      00 330 00 00         : PHIN         - NEUTRON POROSITY (LIMESTONE)
GR  .API      00 310 00 00         : GR           - GAMMA RAY                   
ILD .OHMM     00 120 00 00         : RESD         - DEEP RESISTIVITY (DIL)      
~PARAMETER INFORMATION       
#MNEM.UNIT           DATA             DESCRIPTION OF MNEMONIC
#---------         -----------     ------------------------------
GL  .M        528.69               : gl           - GROUND LEVEL ELEVATION      
EREF.M        532.68               : kb           - ELEVATION OF DEPTH REFERENCE
DATM.M        532.68               : datum        - DATUM ELEVATION             
TDD .M        252                  : tdd          - TOTAL DEPTH DRILLER         
RUN .         ONE                  : Run          - RUN NUMBER                  
ENG .         BILL                 : Engineer     - RECORDING ENGINEER          
WIT .         JIM                  : Witness      - WITNESSED BY                
MUD .         GEL                  : Mud_type     - MUD TYPE                    
MATR.         LIMESTONE            : Logunit      - NEUTRON MATRIX              
TMAX.C        20                   : BHT          - MAXIMUM RECORDED TEMPERATURE
BHTD.M        252                  : BHTDEP       - MAXIMUM RECORDED TEMPERATURE
MATR.         1                    : LOGUNIT      - NEUTRON MATRIX              
RMT .C        25                   : MDTP         - TEMPERATURE OF MUD          
NEUT.         1                    : NEUTRON      - NEUTRON TYPE                
RESI.         0                    : RESIST       - RESISTIVITY TYPE            
RMC .OHMM     0.25                 : RMC          - RESISTIVITY OF MUD CAKE     
RMF .OHMM     0.25                 : RMF          - RESISTIVITY OF MUD FILTRATE 
SUFT.C        15                   : SUFT         - SURFACE TEMPERATURE         
~A  DEPTH     PHID     PHIN       GR     RESD
# ...
  201.401    0.235    0.431  114.901    6.261
  201.701    0.229    0.423  102.909    7.444
  202.001    0.235    0.417   94.074    9.745
  202.301    0.230    0.414   85.866   11.367
  202.601    0.224    0.417   92.795   10.729
  202.901    0.216    0.447  103.507    8.850
  203.201    0.222    0.462  106.018    7.885
  203.501    0.233    0.464  104.116    6.891
  203.801    0.235    0.457  106.632    6.631
  204.101    0.234    0.437  107.885    6.891
  204.401    0.231    0.422  107.245    7.161
  204.701    0.225    0.428  112.280    7.441
  205.001    0.191    0.415  112.274    7.441
  205.301    0.199    0.428  111.635    7.441
  205.601    0.215    0.456  114.149    7.733
  205.901    0.220    0.459  117.292    8.351
  206.201    0.220    0.432  110.978    9.372
  206.501    0.215    0.418  104.662   11.361
  206.801    0.205    0.406  102.763   12.035
  207.101    0.197    0.405  100.231   13.508
  207.401    0.220    0.394  100.223   13.770
  207.701    0.228    0.369  107.150   13.506
  208.001    0.225    0.360  108.404   13.249
  208.301    0.223    0.398  107.134   12.748
  208.601    0.221    0.396  105.863   12.266
  208.901    0.223    0.381  105.224   11.803
  209.201    0.223    0.389  102.061   10.720
  209.501    0.221    0.403  107.728    9.925
  209.801    0.223    0.407  110.874   10.118
  210.101    0.234    0.411  102.665   10.927
  210.401    0.247    0.417   99.504   12.030
  210.701    0.240    0.401   97.604   13.244
  211.001    0.239    0.364   96.964   13.244
  211.301    0.259    0.395   96.326   13.763
  211.601    0.275    0.402   91.270   14.302
  211.901    0.291    0.377   88.108   14.579
  212.201    0.281    0.367   86.209   14.579
  212.501    0.253    0.363   86.832   14.301
  212.801    0.256    0.362   93.131   14.028
  213.101    0.271    0.402   89.966   13.240
  213.401    0.268    0.434   88.699   12.259
  213.701    0.234    0.430   86.797   12.025
  214.001    0.229    0.409   84.896   11.795
  214.301    0.291    0.397   82.366   11.795
  214.601    0.287    0.397   78.573   12.024
  214.901    0.258    0.434   76.039   12.023
  215.201    0.272    0.431   75.402   12.495
  215.501    0.290    0.409   77.287   12.984
  215.801    0.277    0.399   82.953   12.984
  216.101    0.277    0.394   82.312   12.736
  216.401    0.280    0.395   79.783   12.255
  216.701    0.262    0.400   82.296   11.130
  217.001    0.228    0.396   87.331   10.109
  217.301    0.237    0.396   89.216    9.727
  217.601    0.248    0.415   90.467   10.108
  217.901    0.252    0.414   93.611   10.708
  218.201    0.250    0.403   96.126   11.789
  218.501    0.240    0.390   98.010   12.251
  218.801    0.245    0.384   99.262   12.251
  219.101    0.243    0.389   98.624   12.251
  219.401    0.237    0.429   93.569   12.017
  219.701    0.230    0.425   91.039   11.342
  220.001    0.233    0.406   94.183   10.914
  220.301    0.240    0.398   92.913    9.723
  220.601    0.231    0.410   89.118    8.663
  220.901    0.223    0.417   87.219    8.177
  221.201    0.222    0.424   85.951    7.718
  221.501    0.225    0.439   97.292    7.146
  221.801    0.230    0.461  106.113    5.895
  222.101    0.240    0.479  107.365    4.770
  222.401    0.265    0.490  103.571    3.860
  222.701    0.265    0.475  108.608    3.786
  223.001    0.260    0.465  115.536    3.935
  223.301    0.242    0.453  121.833    4.678
  223.601    0.228    0.438  122.455    6.008
  223.901    0.227    0.426  112.358    8.332
  224.201    0.217    0.408   96.583   12.009
  224.501    0.178    0.393   89.639   18.694
  224.801    0.192    0.383   97.826   21.389
  225.101    0.221    0.386  103.494   21.388
  225.401    0.213    0.404   99.070   19.425
  225.701    0.179    0.405   94.648   16.977
  226.001    0.167    0.397   94.008   14.277
  226.301    0.206    0.380   94.001   12.239
  226.601    0.230    0.370   82.011   10.905
  226.901    0.249    0.366   70.021   10.493
  227.201    0.311    0.349   56.769   14.003
  227.501    0.315    0.306   49.824   20.182
  227.801    0.306    0.312   45.401   25.423
  228.101    0.304    0.368   49.805   32.648
  228.401    0.302    0.385   52.319   36.641
  228.701    0.298    0.397   52.310   37.352
  229.001    0.299    0.394   51.039   35.940
  229.301    0.292    0.403   51.663   33.277
  229.601    0.291    0.356   52.916   28.528
  229.901    0.300    0.349   53.538   23.534
  230.201    0.293    0.394   58.574   18.325
  230.501    0.272    0.392   67.393   14.546
  230.801    0.269    0.383   69.277   13.730
  231.101    0.273    0.380   67.373   14.828
  231.401    0.284    0.403   66.736   15.115
  231.701    0.290    0.398   71.142   12.711
  232.001    0.286    0.383   86.269    8.990
  232.301    0.239    0.387   96.349    7.560
  232.601    0.219    0.426   91.296    6.607
  232.901    0.210    0.432   87.504    5.556
  233.201    0.231    0.427   98.846    4.584
  233.501    0.248    0.477  113.341    3.930
  233.801    0.256    0.502  108.285    3.781
  234.101    0.250    0.468  104.494    3.929
  234.401    0.239    0.441  104.487    4.244
  234.701    0.232    0.448  111.415    4.326
  235.001    0.239    0.446  115.820    4.326
  235.301    0.243    0.439  109.505    4.325
  235.601    0.210    0.435   98.146    4.243
  235.901    0.182    0.432   91.831    4.243
  236.201    0.228    0.488  104.435    4.082
  236.501    0.243    0.470  115.776    3.928
  236.801    0.252    0.465  117.659    3.928
  237.101    0.252    0.459  115.758    4.242
  237.401    0.228    0.450  112.598    5.448
  237.701    0.205    0.417  104.391    7.555
  238.001    0.214    0.390   89.247   10.279
  238.301    0.271    0.367   75.366   14.815
  238.601    0.305    0.347   57.700   20.546
  238.901    0.339    0.339   51.385   26.385
  239.201    0.348    0.349   50.114   27.952
  239.501    0.325    0.366   55.152   20.152
  239.801    0.299    0.391   71.539   10.081
  240.101    0.270    0.450   89.187    5.552
  240.401    0.257    0.453   92.331    5.446
  240.701    0.250    0.428   76.558    7.408
  241.001    0.246    0.371   62.675    8.641
  241.301    0.295    0.361   61.405   12.454
  241.601    0.294    0.368   67.703   13.450
  241.901    0.286    0.397   81.568    6.600
  242.201    0.279    0.413   89.757    5.994
  242.501    0.264    0.426   95.424    5.880
  242.801    0.245    0.434  101.090    6.229
  243.101    0.229    0.418  108.648    7.127
  243.401    0.222    0.396  113.053    8.977
  243.701    0.218    0.366  113.045   11.528
  244.001    0.237    0.343   89.705   13.974
  244.301    0.276    0.338   68.885   16.938
  244.602    0.288    0.360   70.138   22.174
  244.902    0.293    0.371   69.500   28.474
  245.202    0.281    0.372   66.337   34.515
  245.502    0.269    0.366   66.330   37.275
  245.802    0.267    0.367   71.996   33.854
  246.102    0.247    0.370   94.059   29.023
  246.402    0.136    0.366  122.427   15.087
  246.702    0.102    0.375  126.830   10.268
  247.002    0.113    0.436  125.560    8.802
  247.302    0.141    0.433  124.922    7.842
  247.602    0.159    0.432  126.174    7.842
  247.902    0.167    0.444  128.059    8.633
  248.202    0.150    0.423  130.569    8.972
  248.502    0.126    0.399  130.563    9.324
  248.802    0.119    0.389  128.031    9.689
  249.102    0.120    0.395  126.763    9.689
  249.402    0.131    0.403  128.643    9.504
  249.702    0.144    0.407  129.897    9.145
  250.002    0.146    0.402  130.519    8.799
  250.302    0.145    0.390  131.142    8.631
  250.602    0.151    0.386  129.870    8.305
  250.902    0.160    0.389  127.341    8.146
  251.202    0.163    0.384  123.548    8.146
  251.502    0.154    0.373   92.641    8.146
  251.802    0.155    0.369   52.273    8.304
  252.102    0.162    0.371   25.149    8.145
