~VERSION INFORMATION
 VERS.                 2.0:   CWLS LOG ASCII STANDARD -VERSION 2.0
 WRAP.                  NO:   ONE LINE PER DEPTH STEP
~WELL INFORMATION BLOCK
#MNEM.UNIT           DATA                    DESCRIPTION OF MNEMONIC
#---------    -------------------            -------------------------------
# Generated from Intellog Unique Number	CW_79_81/WELL/2440
WELL.         01-08-080-21W4                 : Well_name    - WELL
LOC .         00/01-08-080-21W4/0            : Location     - LOCATION
UWI .         00/01-08-080-21W4/0            : Uwi          - UNIQUE WELL ID
ENTR.         MAX                            : Entered      - ENTERED BY
SRVC.         SCHLUMBERGER                   : Scn          - SERVICE COMPANY
STRT.M        215                            : top_depth    - START DEPTH
STOP.M        449.75                         : bot_depth    - STOP DEPTH
STEP.M        0.25                           : increment    - STEP LENGTH
 NULL. -999.2500:NULL Value
~CURVE INFORMATION BLOCK
#MNEM UNIT       ERCB CURVE CODE    CURVE DESCRIPTION
#-----------   ------------------   ----------------------------------
DEPT.M        00 001 00 00         : DEPTH        - DEPTH
ILD .OHMM     00 120 00 00         : RESD         - DEEP RESISTIVITY (DIL)
NPHI.V/V      00 330 00 00         : PHIN         - NEUTRON POROSITY (SANDSTONE)
DPHI.V/V      00 890 00 00         : PHID         - DENSITY POROSITY (SANDSTONE)
GR  .API      00 310 00 00         : GR           - GAMMA RAY
~PARAMETER INFORMATION
#MNEM.UNIT           DATA             DESCRIPTION OF MNEMONIC
#---------         -----------     ------------------------------
GL  .M        583.3                : gl           - GROUND LEVEL ELEVATION
EREF.M        587                  : kb           - ELEVATION OF DEPTH REFERENCE
DATM.M        583.3                : datum        - DATUM ELEVATION
TDD .M        507                  : tdd          - TOTAL DEPTH DRILLER
RUN .         ONE                  : Run          - RUN NUMBER
ENG .         BILL                 : Engineer     - RECORDING ENGINEER
WIT .         JIM                  : Witness      - WITNESSED BY
MUD .         GEL                  : Mud_type     - MUD TYPE
MATR.         SANDSTONE            : Logunit      - NEUTRON MATRIX
TMAX.C        23                   : BHT          - MAXIMUM RECORDED TEMPERATURE
BHTD.M        507                  : BHTDEP       - MAXIMUM RECORDED TEMPERATURE
MATR.         1                    : LOGUNIT      - NEUTRON MATRIX
RMT .C        15                   : MDTP         - TEMPERATURE OF MUD
NEUT.         1                    : NEUTRON      - NEUTRON TYPE
RESI.         0                    : RESIST       - RESISTIVITY TYPE
RMC .OHMM     2.33                 : RMC          - RESISTIVITY OF MUD CAKE
RMF .OHMM     2.19                 : RMF          - RESISTIVITY OF MUD FILTRATE
SUFT.C        -15                  : SUFT         - SURFACE TEMPERATURE
~A  DEPTH     RESD     PHIN     PHID       GR
# ...
  258.500    5.362    0.429    0.116   82.238
  258.750    5.848    0.418    0.142   74.496
  259.000    6.740    0.409    0.177   67.857
  259.250    8.227    0.403    0.214   62.366
  259.500   10.687    0.404    0.245   57.653
  259.750   15.730    0.418    0.257   52.756
  260.000   23.013    0.426    0.260   51.919
  260.250   26.678    0.421    0.261   50.763
  260.500   29.144    0.419    0.262   50.353
  260.750   30.745    0.417    0.263   50.360
  261.000   32.150    0.415    0.267   50.522
  261.250   34.459    0.409    0.271   50.638
  261.500   37.029    0.401    0.268   50.578
  261.750   38.673    0.405    0.268   50.363
  262.000   39.460    0.423    0.266   50.295
  262.250   39.672    0.442    0.263   50.277
  262.500   39.545    0.452    0.260   50.379
  262.750   39.127    0.453    0.261   51.051
  263.000   38.773    0.444    0.263   52.120
  263.250   38.921    0.431    0.270   53.586
  263.500   39.507    0.432    0.272   54.534
  263.750   40.355    0.437    0.271   54.722
  264.000   41.329    0.437    0.269   54.182
  264.250   42.564    0.425    0.264   52.980
  264.500   43.772    0.413    0.260   51.779
  264.750   44.837    0.410    0.257   50.859
  265.000   45.318    0.417    0.256   50.474
  265.250   45.460    0.419    0.258   50.361
  265.500   45.399    0.415    0.262   50.344
  265.750   45.038    0.417    0.263   50.534
  266.000   44.558    0.416    0.257   51.553
  266.250   43.503    0.421    0.253   52.958
  266.500   41.953    0.431    0.252   54.470
  266.750   39.770    0.441    0.255   56.107
  267.000   37.294    0.448    0.257   57.446
  267.250   35.051    0.443    0.251   57.110
  267.500   34.839    0.428    0.237   54.529
  267.750   36.493    0.419    0.242   53.470
  268.000   38.602    0.416    0.253   53.477
  268.250   40.464    0.418    0.265   54.195
  268.500   41.038    0.427    0.271   55.090
  268.750   38.728    0.447    0.265   55.444
  269.000   36.121    0.459    0.257   55.424
  269.250   32.973    0.446    0.253   55.031
  269.500   31.225    0.433    0.247   54.529
  269.750   30.297    0.421    0.242   53.826
  270.000   29.872    0.412    0.240   52.803
  270.250   29.774    0.402    0.248   50.769
  270.500   29.931    0.394    0.267   48.014
  270.750   30.686    0.398    0.274   47.209
  271.000   32.393    0.418    0.273   47.280
  271.250   34.777    0.431    0.271   47.643
  271.500   37.703    0.429    0.271   48.004
  271.750   41.926    0.420    0.276   48.420
  272.000   45.710    0.416    0.282   48.699
  272.250   47.940    0.415    0.279   48.603
  272.500   50.822    0.409    0.278   48.271
  272.750   53.097    0.402    0.277   47.583
  273.000   53.586    0.397    0.276   46.797
  273.250   50.967    0.393    0.275   46.620
  273.500   47.293    0.392    0.270   46.998
  273.750   42.803    0.393    0.266   47.834
  274.000   37.067    0.393    0.265   48.878
  274.250   31.913    0.394    0.264   49.428
  274.500   27.275    0.397    0.263   49.367
  274.750   22.283    0.406    0.268   49.119
  275.000   20.481    0.408    0.271   48.903
  275.250   19.835    0.409    0.271   48.887
  275.500   19.484    0.410    0.269   49.086
  275.750   19.149    0.412    0.268   49.455
  276.000   18.758    0.413    0.268   49.704
  276.250   18.349    0.411    0.271   49.170
  276.500   18.014    0.402    0.272   48.560
  276.750   17.777    0.397    0.271   48.685
  277.000   17.602    0.393    0.266   49.059
  277.250   17.488    0.392    0.259   49.517
  277.500   17.432    0.391    0.253   49.903
  277.750   17.435    0.394    0.252   50.071
  278.000   17.438    0.400    0.251   50.054
  278.250   17.028    0.401    0.250   50.415
  278.500   16.457    0.398    0.248   50.672
  278.750   15.640    0.395    0.243   50.822
  279.000   14.560    0.393    0.236   50.948
  279.250   12.770    0.393    0.226   51.522
  279.500   10.766    0.395    0.217   53.059
  279.750    8.840    0.396    0.209   54.817
  280.000    7.220    0.396    0.197   56.383
  280.250    6.298    0.399    0.184   58.311
  280.500    5.882    0.405    0.173   60.522
  280.750    5.743    0.411    0.166   62.421
  281.000    5.796    0.415    0.161   62.995
  281.250    6.125    0.411    0.153   61.855
  281.500    6.717    0.402    0.152   59.485
  281.750    7.389    0.395    0.160   56.474
  282.000    8.042    0.392    0.172   53.661
  282.250    8.973    0.392    0.185   51.809
  282.500    9.833    0.392    0.195   50.212
  282.750   10.689    0.392    0.205   48.014
  283.000   11.968    0.391    0.218   45.337
  283.250   13.334    0.390    0.231   43.021
  283.500   14.154    0.390    0.241   42.048
  283.750   13.258    0.389    0.244   44.100
  284.000   11.278    0.391    0.240   46.848
  284.250    8.555    0.399    0.229   52.805
  284.500    6.616    0.412    0.211   60.750
  284.750    5.451    0.434    0.187   69.168
  285.000    4.778    0.453    0.160   75.926
  285.250    4.374    0.443    0.141   78.000
  285.500    4.294    0.432    0.137   76.598
  285.750    4.352    0.432    0.143   74.969
  286.000    4.445    0.440    0.149   73.342
  286.250    4.556    0.453    0.153   71.762
  286.500    4.688    0.469    0.156   70.091
  286.750    4.917    0.482    0.161   67.423
  287.000    5.146    0.484    0.169   64.526
  287.250    5.583    0.486    0.179   58.253
  287.500    6.416    0.464    0.191   52.728
  287.750    7.742    0.431    0.203   47.712
  288.000    9.686    0.399    0.216   43.133
  288.250   12.626    0.371    0.230   38.561
  288.500   15.013    0.357    0.239   35.929
  288.750   17.096    0.346    0.240   35.720
  289.000   18.499    0.357    0.246   35.939
  289.250   19.298    0.367    0.248   36.301
  289.500   19.715    0.368    0.246   36.614
  289.750   19.998    0.368    0.244   36.794
  290.000   20.220    0.369    0.245   36.828
  290.250   20.418    0.362    0.242   37.156
  290.500   20.756    0.353    0.237   37.816
  290.750   21.017    0.355    0.236   38.574
  291.000   21.121    0.367    0.238   39.211
  291.250   21.182    0.374    0.237   39.542
  291.500   21.316    0.375    0.238   39.622
  291.750   21.446    0.367    0.242   39.606
  292.000   21.250    0.352    0.246   39.617
  292.250   20.972    0.338    0.249   39.716
  292.500   20.657    0.332    0.251   39.988
  292.750   20.035    0.339    0.255   40.657
  293.000   19.365    0.359    0.256   41.235
  293.250   18.859    0.380    0.253   42.357
  293.500   18.531    0.394    0.246   44.012
  293.750   18.388    0.400    0.234   46.371
  294.000   18.489    0.399    0.219   49.322
  294.250   19.207    0.397    0.205   51.669
  294.500   20.558    0.395    0.181   47.704
  294.750   20.913    0.387    0.188   44.609
  295.000   20.769    0.379    0.201   42.543
  295.250   20.310    0.372    0.215   41.388
  295.500   19.709    0.370    0.229   40.761
  295.750   19.043    0.378    0.244   39.845
  296.000   18.802    0.385    0.251   39.002
  296.250   18.693    0.389    0.264   38.991
  296.500   18.585    0.395    0.272   39.189
  296.750   18.477    0.398    0.276   39.363
  297.000   18.377    0.397    0.276   39.370
  297.250   18.299    0.392    0.272   39.111
  297.500   18.302    0.393    0.268   38.852
  297.750   18.304    0.398    0.265   38.639
  298.000   18.307    0.393    0.265   38.146
  298.250   18.309    0.390    0.266   37.561
  298.500   18.312    0.391    0.266   37.072
  298.750   18.315    0.398    0.267   36.912
  299.000   18.317    0.404    0.268   37.141
  299.250   18.320    0.404    0.265   37.619
  299.500   18.323    0.397    0.266   38.169
  299.750   18.380    0.393    0.267   38.544
  300.000   18.492    0.394    0.268   38.753
  300.250   18.616    0.391    0.267   39.164
  300.500   18.677    0.388    0.262   39.640
  300.750   18.651    0.388    0.254   40.429
  301.000   18.547    0.392    0.248   42.015
  301.250   18.426    0.399    0.243   43.823
  301.500   18.261    0.405    0.241   45.331
  301.750   17.908    0.400    0.234   46.286
