~VERSION INFORMATION
 VERS.                 2.0:   CWLS LOG ASCII STANDARD -VERSION 2.0
 WRAP.                  NO:   ONE LINE PER DEPTH STEP
~WELL INFORMATION BLOCK
#MNEM.UNIT           DATA                    DESCRIPTION OF MNEMONIC
#---------    -------------------            -------------------------------
# Generated from Intellog Unique Number	CX_WELLS/WELL/3716
WELL.         PETROREP HOUSE                 : Well_name    - WELL
LOC .         00/01-05-085-15W4/0            : Location     - LOCATION
UWI .         00/01-05-085-15W400            : Uwi          - UNIQUE WELL ID
ENTR.         T                              : Entered      - ENTERED BY
SRVC.         SCHLUMBERGER                   : Scn          - SERVICE COMPANY
STRT.M        100                            : top_depth    - START DEPTH
STOP.M        280                            : bot_depth    - STOP DEPTH
STEP.M        0.25                           : increment    - STEP LENGTH
 NULL. -999.2500:NULL Value
~CURVE INFORMATION BLOCK
#MNEM UNIT       ERCB CURVE CODE    CURVE DESCRIPTION
#-----------   ------------------   ----------------------------------
DEPT.M        00 001 00 00         : DEPTH        - DEPTH
GR  .API      00 310 00 00         : GR           - GAMMA RAY
NPHI.V/V      00 330 00 00         : PHIN         - NEUTRON POROSITY (SANDSTONE)
DPHI.V/V      00 890 00 00         : PHID         - DENSITY POROSITY (SANDSTONE)
ILD .OHMM     00 120 00 00         : RESD         - DEEP RESISTIVITY (DIL)
~PARAMETER INFORMATION
#MNEM.UNIT           DATA             DESCRIPTION OF MNEMONIC
#---------         -----------     ------------------------------
GL  .M        531.9                : gl           - GROUND LEVEL ELEVATION
EREF.M        535.5                : kb           - ELEVATION OF DEPTH REFERENCE
DATM.M        535.5                : datum        - DATUM ELEVATION
TDD .M        285                  : tdd          - TOTAL DEPTH DRILLER
RUN .         ONE                  : Run          - RUN NUMBER
ENG .         BILL                 : Engineer     - RECORDING ENGINEER
WIT .         JIM                  : Witness      - WITNESSED BY
MUD .         GEL                  : Mud_type     - MUD TYPE
MATR.         SANDSTONE            : Logunit      - NEUTRON MATRIX
TMAX.C        18                   : BHT          - MAXIMUM RECORDED TEMPERATURE
BHTD.M        285                  : BHTDEP       - MAXIMUM RECORDED TEMPERATURE
MATR.         1                    : LOGUNIT      - NEUTRON MATRIX
RMT .C        20                   : MDTP         - TEMPERATURE OF MUD
NEUT.         1                    : NEUTRON      - NEUTRON TYPE
RESI.         2.4                  : RESIST       - RESISTIVITY TYPE
RMC .OHMM     1.8                  : RMC          - RESISTIVITY OF MUD CAKE
RMF .OHMM     2.4                  : RMF          - RESISTIVITY OF MUD FILTRATE
SUFT.C        4                    : SUFT         - SURFACE TEMPERATURE
~A  DEPTH       GR     PHIN     PHID     RESD
# ...
  230.500  110.659    0.453    0.244    6.667
  230.750  110.726    0.454    0.246    6.074
  231.000  110.777    0.454    0.245    5.531
  231.250  110.845    0.454    0.241    4.851
  231.500  112.182    0.453    0.236    4.419
  231.750  114.754    0.451    0.232    4.181
  232.000  117.327    0.441    0.223    4.188
  232.250  116.785    0.431    0.216    4.196
  232.500  114.348    0.422    0.204    4.283
  232.750  111.911    0.416    0.194    4.453
  233.000  108.848    0.407    0.194    4.813
  233.250  107.054    0.399    0.190    5.399
  233.500  107.088    0.389    0.192    6.921
  233.750  106.547    0.385    0.201    9.037
  234.000  106.615    0.380    0.196   13.739
  234.250  105.430    0.374    0.183   16.012
  234.500  102.367    0.382    0.213   16.656
  234.750   97.425    0.385    0.227   16.061
  235.000   93.719    0.386    0.241   14.917
  235.250   87.508    0.386    0.255   13.590
  235.500   78.809    0.384    0.262   12.858
  235.750   71.989    0.383    0.270   14.434
  236.000   64.559    0.383    0.275   16.191
  236.250   61.462    0.383    0.281   18.169
  236.500   57.147    0.381    0.286   21.589
  236.750   55.353    0.379    0.288   24.226
  237.000   54.778    0.375    0.291   26.675
  237.250   54.236    0.372    0.292   27.737
  237.500   53.695    0.372    0.294   30.541
  237.750   53.745    0.373    0.294   32.389
  238.000   53.813    0.374    0.295   33.072
  238.250   55.133    0.375    0.294   33.743
  238.500   57.080    0.377    0.294   33.161
  238.750   59.652    0.380    0.291   33.212
  239.000   62.224    0.384    0.284   32.038
  239.250   64.797    0.389    0.278   30.302
  239.500   70.534    0.392    0.273   27.605
  239.750   73.090    0.397    0.273   24.212
  240.000   75.053    0.407    0.276   20.447
  240.250   74.495    0.418    0.277   17.267
  240.500   73.293    0.418    0.277   14.308
  240.750   75.239    0.412    0.273   12.794
  241.000   83.464    0.410    0.258   11.879
  241.250   92.299    0.414    0.246   11.450
  241.500  100.524    0.421    0.227   10.431
  241.750  101.861    0.424    0.232    9.499
  242.000  101.928    0.426    0.240    8.175
  242.250  105.110    0.427    0.247    7.170
  242.500  110.830    0.431    0.252    6.289
  242.750  110.289    0.443    0.253    5.729
  243.000  109.104    0.452    0.247    4.658
  243.250  107.920    0.452    0.241    4.087
  243.500  107.378    0.442    0.234    3.944
  243.750  106.786    0.439    0.230    3.873
  244.000  106.854    0.445    0.233    3.879
  244.250  108.800    0.455    0.240    3.811
  244.500  110.120    0.461    0.241    3.746
  244.750  107.683    0.466    0.232    3.752
  245.000  104.637    0.467    0.219    3.758
  245.250  107.192    0.467    0.229    3.765
  245.500  112.896    0.468    0.237    3.769
  245.750  119.868    0.472    0.238    3.777
  246.000  120.562    0.476    0.233    3.783
  246.250  119.378    0.474    0.224    3.788
  246.500  117.584    0.469    0.211    3.868
  246.750  115.756    0.435    0.200    3.871
  247.000  108.310    0.424    0.223    4.107
  247.250  100.220    0.409    0.252    4.351
  247.500   94.043    0.405    0.261    5.792
  247.750   91.589    0.406    0.273    7.012
  248.000   79.760    0.406    0.290    8.488
  248.250   69.199    0.402    0.293   11.088
  248.500   71.772    0.399    0.286   13.170
  248.750   74.987    0.397    0.269   13.443
  249.000   77.543    0.398    0.262   11.569
  249.250   84.481    0.400    0.258    9.957
  249.500   83.940    0.405    0.256    7.505
  249.750   77.103    0.399    0.252    6.711
  250.000   70.926    0.390    0.248    6.474
  250.250   69.115    0.387    0.260    6.481
  250.500   68.556    0.393    0.274    6.742
  250.750   67.998    0.401    0.290    7.144
  251.000   68.692    0.405    0.305    8.486
  251.250   69.995    0.414    0.304    9.708
  251.500   77.594    0.418    0.292    9.189
  251.750   90.185    0.428    0.275    8.211
  252.000  105.941    0.433    0.258    7.337
  252.250  107.262    0.422    0.243    6.942
  252.500  109.208    0.408    0.231    7.091
  252.750  111.780    0.396    0.229    7.374
  253.000  114.996    0.392    0.228    8.274
  253.250  113.794    0.392    0.233    9.285
  253.500  107.600    0.392    0.238   10.618
  253.750  101.389    0.389    0.242   11.696
  254.000   93.943    0.383    0.244   17.119
  254.250   95.263    0.375    0.236   17.801
  254.500   99.105    0.369    0.229   19.233
  254.750   94.163    0.367    0.241   21.994
  255.000   83.586    0.366    0.253   25.172
  255.250   79.270    0.364    0.264   25.221
  255.500   78.069    0.362    0.275   24.776
  255.750   95.060    0.359    0.268   23.891
  256.000   98.885    0.359    0.254   23.038
  256.250  102.710    0.361    0.230   22.640
  256.500   99.647    0.364    0.211   24.010
  256.750   87.817    0.364    0.221   24.488
  257.000   82.875    0.360    0.238   26.467
  257.250   77.917    0.352    0.257   28.606
  257.500   73.601    0.347    0.263   30.895
  257.750   79.948    0.344    0.254   30.373
  258.000   80.659    0.344    0.242   28.727
  258.250   82.605    0.344    0.231   27.192
  258.500   87.665    0.345    0.211   26.210
  258.750  100.900    0.350    0.204   24.343
  259.000  101.627    0.351    0.208   23.465
  259.250   99.800    0.354    0.212   21.785
  259.500   98.615    0.357    0.214   20.621
  259.750   98.683    0.361    0.219   20.644
  260.000  100.629    0.368    0.223   21.072
  260.250  101.932    0.377    0.223   21.104
  260.500  106.417    0.384    0.221   19.976
  260.750  109.599    0.397    0.219   18.205
  261.000  112.797    0.414    0.220   16.889
  261.250  110.987    0.430    0.235   14.535
  261.500   94.148    0.437    0.254   12.754
  261.750   86.684    0.425    0.281   11.614
  262.000   79.255    0.416    0.303   11.418
  262.250   78.696    0.405    0.328   12.104
  262.500   78.764    0.387    0.323   18.753
  262.750   78.832    0.383    0.318   21.035
  263.000   78.900    0.384    0.321   25.474
  263.250   79.577    0.387    0.324   29.678
  263.500   82.166    0.390    0.324   37.342
  263.750   89.765    0.393    0.321   42.688
  264.000   86.702    0.399    0.315   43.572
  264.250   84.265    0.408    0.311   43.639
  264.500   78.054    0.412    0.307   42.080
  264.750   82.505    0.400    0.298   39.815
  265.000   99.496    0.368    0.273   36.271
  265.250  108.957    0.328    0.239   30.055
  265.500  117.808    0.353    0.210   25.381
  265.750  123.511    0.382    0.198   19.496
  266.000  128.588    0.392    0.147   14.148
  266.250  134.326    0.405    0.116   11.499
  266.500  136.881    0.432    0.130    9.896
  266.750  140.080    0.438    0.142    9.188
  267.000  140.165    0.425    0.143    8.530
  267.250  139.589    0.419    0.144    8.226
  267.500  137.829    0.420    0.145    7.792
  267.750  137.237    0.422    0.145    7.654
  268.000  136.069    0.423    0.145    7.375
  268.250  136.103    0.422    0.144    7.251
  268.500  136.171    0.422    0.141    7.126
  268.750  135.003    0.423    0.138    7.273
  269.000  134.445    0.424    0.122    7.571
  269.250  133.886    0.426    0.108    7.722
  269.500  131.449    0.426    0.102    8.033
  269.750  128.386    0.422    0.100    8.356
  270.000  127.202    0.419    0.103    8.529
  270.250  127.895    0.415    0.105    8.705
  270.500  131.720    0.416    0.106    8.722
  270.750  135.562    0.416    0.106    8.571
  271.000  136.256    0.414    0.105    8.423
  271.250  135.071    0.402    0.102    8.281
  271.500  121.989    0.385    0.101    8.291
  271.750  120.788    0.339    0.098    8.462
  272.000  120.856    0.296    0.093    8.971
  272.250  120.297    0.265    0.073   10.259
  272.500  121.634    0.252    0.049   12.186
  272.750  114.797    0.237    0.030   15.919
  273.000   91.679    0.227    0.025   19.270
  273.250   77.954    0.219    0.022   22.898
  273.500   71.760    0.215    0.022   25.704
  273.750   69.323    0.217    0.023   26.236
