~VERSION INFORMATION
 VERS.                 2.0:   CWLS LOG ASCII STANDARD -VERSION 2.0
 WRAP.                  NO:   ONE LINE PER DEPTH STEP
~WELL INFORMATION BLOCK
#MNEM.UNIT           DATA                    DESCRIPTION OF MNEMONIC
#---------    -------------------            -------------------------------
# Generated from Intellog Unique Number	CX_WELLS/WELL/3716
WELL.         PETROREP HOUSE                 : Well_name    - WELL
LOC .         00/01-05-085-15W4/0            : Location     - LOCATION
UWI .         00/01-05-085-15W400            : Uwi          - UNIQUE WELL ID
ENTR.         T                              : Entered      - ENTERED BY
SRVC.         SCHLUMBERGER                   : Scn          - SERVICE COMPANY
STRT.M        100                            : top_depth    - START DEPTH
STOP.M        280                            : bot_depth    - STOP DEPTH
STEP.M        0.25                           : increment    - STEP LENGTH
 NULL. -999.2500:NULL Value
~CURVE INFORMATION BLOCK
#MNEM UNIT       ERCB CURVE CODE    CURVE DESCRIPTION
#-----------   ------------------   ----------------------------------
DEPT.M        00 001 00 00         : DEPTH        - DEPTH
GR  .API      00 310 00 00         : GR           - GAMMA RAY
NPHI.V/V      00 330 00 00         : PHIN         - NEUTRON POROSITY (SANDSTONE)
DPHI.V/V      00 890 00 00         : PHID         - DENSITY POROSITY (SANDSTONE)
ILD .OHMM     00 120 00 00         : RESD         - DEEP RESISTIVITY (DIL)
~PARAMETER INFORMATION
#MNEM.UNIT           DATA             DESCRIPTION OF MNEMONIC
#---------         -----------     ------------------------------
GL  .M        531.9                : gl           - GROUND LEVEL ELEVATION
EREF.M        535.5                : kb           - ELEVATION OF DEPTH REFERENCE
DATM.M        535.5                : datum        - DATUM ELEVATION
TDD .M        285                  : tdd          - TOTAL DEPTH DRILLER
RUN .         ONE                  : Run          - RUN NUMBER
ENG .         BILL                 : Engineer     - RECORDING ENGINEER
WIT .         JIM                  : Witness      - WITNESSED BY
MUD .         GEL                  : Mud_type     - MUD TYPE
MATR.         SANDSTONE            : Logunit      - NEUTRON MATRIX
TMAX.C        18                   : BHT          - MAXIMUM RECORDED TEMPERATURE
BHTD.M        285                  : BHTDEP       - MAXIMUM RECORDED TEMPERATURE
MATR.         1                    : LOGUNIT      - NEUTRON MATRIX
RMT .C        20                   : MDTP         - TEMPERATURE OF MUD
NEUT.         1                    : NEUTRON      - NEUTRON TYPE
RESI.         2.4                  : RESIST       - RESISTIVITY TYPE
RMC .OHMM     1.8                  : RMC          - RESISTIVITY OF MUD CAKE
RMF .OHMM     2.4                  : RMF          - RESISTIVITY OF MUD FILTRATE
SUFT.C        4                    : SUFT         - SURFACE TEMPERATURE
~A  DEPTH       GR     PHIN     PHID     RESD
  100.000   89.628    0.396    0.332   14.499
  100.250   90.322    0.392    0.338   13.976
  100.500   89.781    0.389    0.333   13.729
  100.750   91.101    0.389    0.326   13.502
  101.000   92.404    0.396    0.314   13.269
  101.250   95.603    0.403    0.292   13.290
  101.500  100.680    0.413    0.272   13.310
  101.750   95.112    0.409    0.278   13.325
  102.000   82.030    0.393    0.288   12.859
  102.250   73.941    0.380    0.287   12.632
  102.500   73.382    0.363    0.275   12.176
  102.750   91.000    0.354    0.259   11.309
  103.000   95.485    0.352    0.254   10.499
  103.250   98.040    0.354    0.250    9.934
  103.500  102.491    0.356    0.230    9.220
  103.750  109.447    0.374    0.217    8.563
  104.000  119.567    0.406    0.213    8.257
  104.250  123.375    0.447    0.209    7.522
  104.500  122.817    0.451    0.203    7.115
  104.750  121.649    0.451    0.197    6.360
  105.000  120.448    0.451    0.190    5.798
  105.250  121.768    0.451    0.186    5.484
  105.500  126.253    0.456    0.191    5.286
  105.750  125.711    0.462    0.197    5.002
  106.000  125.119    0.474    0.205    4.643
  106.250  124.560    0.487    0.213    4.394
  106.500  127.150    0.497    0.216    4.157
  106.750  129.096    0.511    0.209    4.085
  107.000  131.042    0.514    0.211    4.763
  107.250  129.841    0.510    0.220    6.103
  107.500  124.273    0.500    0.260    7.249
  107.750  116.200    0.482    0.267    8.291
  108.000  105.606    0.429    0.276    9.666
  108.250   93.167    0.425    0.288   10.643
  108.500   90.713    0.418    0.294   11.288
  108.750   94.538    0.405    0.294   11.521
  109.000   98.989    0.395    0.262   11.539
  109.250  107.214    0.426    0.256   11.556
  109.500  113.544    0.434    0.251   10.935
  109.750  111.733    0.433    0.248   10.742
  110.000  106.791    0.432    0.267   10.556
  110.250  101.849    0.433    0.298   10.576
  110.500   95.029    0.438    0.408   10.791
  110.750   89.461    0.444    0.388   11.014
  111.000   83.894    0.458    0.314   11.686
  111.250   78.309    0.448    0.289   11.927
  111.500   72.741    0.426    0.287   12.402
  111.750   66.547    0.380    0.286   12.901
  112.000   62.874    0.386    0.284   13.420
  112.250   61.673    0.395    0.287   14.233
  112.500   62.384    0.395    0.298   14.805
  112.750   64.330    0.381    0.313   15.106
  113.000   67.529    0.370    0.317   15.719
  113.250   70.101    0.372    0.314   16.352
  113.500   70.812    0.374    0.315   16.696
  113.750   69.627    0.375    0.319   16.722
  114.000   71.591    0.379    0.322   17.068
  114.250   72.877    0.380    0.326   17.088
  114.500   76.076    0.386    0.328   17.441
  114.750   73.655    0.391    0.331   17.816
  115.000   70.575    0.396    0.336   17.836
  115.250   66.886    0.401    0.342   17.857
  115.500   66.328    0.408    0.345   17.898
  115.750   62.655    0.419    0.344   17.918
  116.000   63.349    0.428    0.343   17.946
  116.250   63.417    0.428    0.343   17.980
  116.500   64.094    0.423    0.342   18.001
  116.750   63.535    0.417    0.342   18.042
  117.000   61.099    0.415    0.342   18.063
  117.250   58.661    0.413    0.344   17.744
  117.500   58.746    0.410    0.351   17.778
  117.750   59.440    0.406    0.350   17.799
  118.000   60.134    0.416    0.347   17.505
  118.250   58.949    0.424    0.347   17.532
  118.500   59.017    0.432    0.349   17.222
  118.750   59.085    0.435    0.350   17.249
  119.000   60.405    0.425    0.350   17.275
  119.250   62.368    0.415    0.346   16.983
  119.500   63.688    0.405    0.342   17.016
  119.750   64.382    0.395    0.339   16.709
  120.000   65.702    0.392    0.339   16.741
  120.250   66.379    0.392    0.339   16.452
  120.500   67.733    0.393    0.340   16.477
  120.750   66.549    0.399    0.340   16.193
  121.000   64.738    0.407    0.340   16.218
  121.250   64.197    0.418    0.345   15.932
  121.500   64.856    0.423    0.346   15.662
  121.750   66.803    0.414    0.340   15.681
  122.000   68.123    0.412    0.328   15.416
  122.250   73.200    0.410    0.309   14.865
  122.500   91.444    0.420    0.254   13.542
  122.750  100.921    0.428    0.241   11.431
  123.000  101.615    0.438    0.249    8.949
  123.250   95.421    0.448    0.261    6.750
  123.500   96.758    0.460    0.270    6.628
  123.750   98.705    0.448    0.269    6.514
  124.000  100.634    0.428    0.270    6.524
  124.250  101.954    0.426    0.277    7.054
  124.500  103.274    0.425    0.284    7.332
  124.750  103.985    0.420    0.292    9.052
  125.000  102.174    0.410    0.303   10.752
  125.250   97.216    0.402    0.319   11.394
  125.500   86.012    0.390    0.329   12.551
  125.750   72.304    0.389    0.323   13.300
  126.000   72.372    0.395    0.319   14.111
  126.250   75.570    0.403    0.321   14.397
  126.500   80.647    0.408    0.332   14.977
  126.750   86.977    0.411    0.343   14.999
  127.000   83.914    0.419    0.346   15.023
  127.250   73.963    0.422    0.343   15.046
  127.500   69.038    0.428    0.337   14.791
  127.750   69.106    0.418    0.328   15.103
  128.000   71.661    0.397    0.318   15.121
  128.250   74.251    0.369    0.308   15.428
  128.500   76.197    0.374    0.298   15.463
  128.750   76.248    0.388    0.290   15.475
  129.000   70.680    0.385    0.299   15.214
  129.250   61.355    0.381    0.318   15.237
  129.500   58.309    0.387    0.318   15.558
  129.750   55.229    0.385    0.318   16.184
  130.000   50.321    0.377    0.319   16.835
  130.250   50.389    0.374    0.320   17.183
  130.500   51.675    0.377    0.322   17.210
  130.750   52.403    0.372    0.323   17.573
  131.000   53.063    0.369    0.324   17.593
  131.250   53.757    0.369    0.324   18.658
  131.500   53.841    0.371    0.329   19.037
  131.750   55.144    0.379    0.331   19.438
  132.000   57.108    0.386    0.335   19.468
  132.250   57.802    0.392    0.332   19.505
  132.500   55.365    0.387    0.327   19.893
  132.750   52.928    0.377    0.328   19.947
  133.000   54.891    0.373    0.329   19.962
  133.250   58.106    0.372    0.330   20.367
  133.500   58.767    0.374    0.329   20.414
  133.750   58.225    0.378    0.331   20.829
  134.000   57.667    0.379    0.337   20.869
  134.250   57.751    0.374    0.344   20.893
  134.500   57.159    0.372    0.343   20.548
  134.750   54.722    0.385    0.340   20.571
  135.000   54.164    0.397    0.338   20.595
  135.250   55.535    0.406    0.342   20.642
  135.500   54.316    0.393    0.343   20.666
  135.750   52.505    0.390    0.340   21.102
  136.000   53.199    0.395    0.338   21.118
  136.250   56.415    0.398    0.336   21.150
  136.500   56.465    0.391    0.336   21.191
  136.750   54.045    0.380    0.336   21.215
  137.000   54.096    0.380    0.335   21.264
  137.250   54.164    0.383    0.334   21.280
  137.500   55.484    0.387    0.333   21.321
  137.750   57.430    0.391    0.333   21.354
  138.000   57.498    0.394    0.334   21.387
  138.250   53.809    0.390    0.336   21.033
  138.500   52.015    0.384    0.338   21.049
  138.750   53.335    0.383    0.339   21.090
  139.000   54.029    0.382    0.339   21.122
  139.250   52.218    0.382    0.338   21.146
  139.500   49.781    0.381    0.338   21.179
  139.750   49.223    0.378    0.341   21.228
  140.000   51.795    0.377    0.347   21.252
  140.250   55.620    0.379    0.354   21.285
  140.500   57.566    0.389    0.358   21.325
  140.750   53.268    0.387    0.365   21.350
  141.000   50.814    0.388    0.375   21.391
  141.250   48.377    0.395    0.383   21.415
  141.500   46.566    0.404    0.386   21.448
  141.750   46.634    0.412    0.390   21.086
  142.000   47.328    0.415    0.380   21.110
  142.250   48.648    0.418    0.371   21.142
  142.500   49.393    0.417    0.371   22.422
  142.750   48.800    0.407    0.351   24.679
  143.000   47.616    0.389    0.229   28.785
  143.250   45.805    0.375    0.196   32.314
