~VERSION INFORMATION
 VERS.                 2.0:   CWLS LOG ASCII STANDARD -VERSION 2.0
 WRAP.                  NO:   ONE LINE PER DEPTH STEP
~WELL INFORMATION BLOCK
#MNEM.UNIT           DATA                    DESCRIPTION OF MNEMONIC
#---------    -------------------            -------------------------------
# Generated from Intellog Unique Number	CN_94_101/WELL/3431
WELL.         PARMOUNT RES                   : Well_name    - WELL
LOC .         01-01-095-19W4                 : Location     - LOCATION
UWI .         00/01-01-095-19W4/0            : Uwi          - UNIQUE WELL ID
ENTR.         T                              : Entered      - ENTERED BY
SRVC.         SCHLUMBERGER                   : Scn          - SERVICE COMPANY
DATE.         07/22/92                       : Date         - LOG DATE
STRT.M        200                            : top_depth    - START DEPTH
STOP.M        374.75                         : bot_depth    - STOP DEPTH
STEP.M        0.25                           : increment    - STEP LENGTH
 NULL. -999.2500:NULL Value
~CURVE INFORMATION BLOCK
#MNEM UNIT       ERCB CURVE CODE    CURVE DESCRIPTION
#-----------   ------------------   ----------------------------------
DEPT.M        00 001 00 00         : DEPTH        - DEPTH
GR  .API      00 310 00 00         : GR           - GAMMA RAY
CALI.MM       00 280 01 00         : CAL          - CALIPER
NPHI.V/V      00 330 00 00         : PHIN         - NEUTRON POROSITY (SANDSTONE)
DPHI.V/V      00 890 00 00         : PHID         - DENSITY POROSITY (SANDSTONE)
ILD .OHMM     00 120 00 00         : RESD         - DEEP RESISTIVITY (DIL)
~PARAMETER INFORMATION
#MNEM.UNIT           DATA             DESCRIPTION OF MNEMONIC
#---------         -----------     ------------------------------
GL  .M        646.8                : gl           - GROUND LEVEL ELEVATION
EREF.M        650.2                : kb           - ELEVATION OF DEPTH REFERENCE
DATM.M        650.2                : datum        - DATUM ELEVATION
TDD .M        387.5                : tdd          - TOTAL DEPTH DRILLER
RUN .         0.000000             : Run          - RUN NUMBER
MUD .         GEL                  : Mud_type     - MUD TYPE
MATR.         SANDSTONE            : Logunit      - NEUTRON MATRIX
TMAX.C        41                   : BHT          - MAXIMUM RECORDED TEMPERATURE
BHTD.M        387.5                : BHTDEP       - MAXIMUM RECORDED TEMPERATURE
RMT .C        17                   : MDTP         - TEMPERATURE OF MUD
MUDD.KG/M     1120                 : MWT          - MUD DENSITY
NEUT.         1                    : NEUTRON      - NEUTRON TYPE
RESI.         0                    : RESIST       - RESISTIVITY TYPE
RM  .OHMM     5.88                 : RM           - RESISTIVITY OF MUD
RMC .OHMM     6.6                  : RMC          - RESISTIVITY OF MUD CAKE
RMF .OHMM     6.6                  : RMF          - RESISTIVITY OF MUD FILTRATE
SUFT.C        4                    : SUFT         - SURFACE TEMPERATURE
~A  DEPTH       GR      CAL     PHIN     PHID     RESD
# ...
  346.000   97.500  181.017    0.423    0.204    8.050
  346.250  103.125  181.017    0.423    0.200    6.908
  346.500  105.000  181.017    0.427    0.188    6.777
  346.750  103.750  181.017    0.442    0.184    6.522
  347.000  104.375  179.979    0.445    0.195    6.522
  347.250  106.875  178.942    0.438    0.207    6.648
  347.500  108.750  178.942    0.451    0.209    6.648
  347.750  106.250  178.942    0.461    0.209    6.648
  348.000  106.250  178.942    0.452    0.198    6.648
  348.250  105.625  178.942    0.441    0.180    6.777
  348.500  104.375  178.942    0.433    0.184    6.777
  348.750  107.500  178.942    0.423    0.184    6.158
  349.000  106.250  178.942    0.422    0.173    6.158
  349.250  103.125  178.942    0.421    0.182    6.042
  349.500  105.000  178.942    0.421    0.200    5.927
  349.750  108.125  178.942    0.431    0.203    5.927
  350.000  110.625  179.979    0.445    0.203    5.927
  350.250  104.375  179.979    0.443    0.202    5.815
  350.500  102.500  194.502    0.415    0.209    6.042
  350.750  105.625  184.129    0.421    0.210    6.158
  351.000  107.500  195.539    0.426    0.203    6.399
  351.250  111.875  192.427    0.406    0.202    6.522
  351.500  115.000  185.166    0.416    0.205    7.177
  351.750  110.625  190.353    0.412    0.193    7.601
  352.000  107.500  186.203    0.387    0.158    8.050
  352.250  103.125  179.979    0.372    0.100    8.364
  352.500   91.250  175.830    0.338    0.078    8.691
  352.750   98.125  185.166    0.353    0.105    8.859
  353.000  110.625  185.166    0.358    0.197    7.601
  353.250  125.625  184.129    0.397    0.203    7.041
  353.500  129.375  184.129    0.406    0.205    6.399
  353.750  126.875  181.017    0.437    0.207    6.158
  354.000  105.000  178.942    0.446    0.210    5.927
  354.250  117.500  184.129    0.460    0.215    5.705
  354.500  115.625  177.905    0.467    0.205    5.491
  354.750  113.750  175.830    0.456    0.200    5.491
  355.000  110.000  176.867    0.435    0.205    5.815
  355.250  111.875  189.315    0.436    0.210    5.815
  355.500  114.375  192.427    0.440    0.215    5.815
  355.750  114.375  187.241    0.445    0.222    5.597
  356.000  114.375  177.905    0.460    0.210    5.386
  356.250  113.125  177.905    0.461    0.184    5.284
  356.500  108.125  178.942    0.453    0.124    5.184
  356.750  105.000  187.241    0.450    0.133    5.184
  357.000  102.500  196.577    0.448    0.251    5.184
  357.250  103.750  188.278    0.453    0.248    5.184
  357.500  109.375  178.942    0.477    0.239    5.086
  357.750  111.875  177.905    0.477    0.210    5.086
  358.000  108.750  183.091    0.476    0.187    5.184
  358.250  105.809  182.851    0.451    0.169    5.284
  358.500  105.187  184.917    0.445    0.182    5.284
  358.750  108.921  188.017    0.445    0.208    5.284
  359.000  118.257  186.983    0.447    0.210    5.184
  359.250  124.481  185.950    0.446    0.194    5.184
  359.500  121.992  180.785    0.422    0.160    5.086
  359.750  112.656  179.752    0.421    0.135    4.802
  360.000  102.075  179.752    0.438    0.153    4.711
  360.250  105.187  182.851    0.448    0.204    4.622
  360.500  107.676  179.752    0.451    0.238    4.448
  360.750  108.921  176.653    0.432    0.232    4.281
  361.000  105.809  176.653    0.445    0.217    4.200
  361.250  100.207  176.653    0.447    0.204    4.042
  361.500   97.718  176.653    0.435    0.217    3.891
  361.750  102.075  175.620    0.437    0.222    4.042
  362.000  107.054  174.587    0.445    0.222    3.966
  362.250  107.676  173.554    0.442    0.213    4.200
  362.500  105.625  172.718    0.440    0.205    4.448
  362.750  102.500  177.905    0.441    0.198    4.711
  363.000   95.000  178.942    0.445    0.184    4.990
  363.250   87.500  178.942    0.421    0.162    6.158
  363.500   69.375  160.270    0.391    0.118    8.050
  363.750   60.000  174.793    0.342    0.213   10.524
  364.000   59.375  175.830    0.343    0.271   14.022
  364.250   60.000  177.905    0.388    0.307   21.362
  364.500   58.750  178.942    0.403    0.307   22.195
  364.750   58.125  177.905    0.392    0.306   26.876
  365.000   60.000  181.017    0.382    0.303   29.014
  365.250   59.375  182.054    0.388    0.302   31.322
  365.500   57.500  183.091    0.406    0.299   33.172
  365.750   57.500  181.017    0.416    0.301   35.132
  366.000   59.375  177.905    0.422    0.302   35.811
  366.250   60.625  177.905    0.421    0.303   31.322
  366.500   60.373  177.686    0.417    0.306   31.927
  366.750   60.373  177.686    0.415    0.312   33.172
  367.000   59.751  177.686    0.406    0.316   34.466
  367.250   55.394  176.653    0.400    0.314   36.503
  367.500   51.660  176.653    0.387    0.307   37.208
  367.750   49.170  177.686    0.377    0.296   37.927
  368.000   49.793  178.719    0.376    0.291   38.660
  368.250   50.415  183.884    0.387    0.292   38.660
  368.500   58.506  182.851    0.401    0.299   37.208
  368.750   59.129  182.851    0.402    0.304   23.961
  369.000   57.261  181.818    0.397    0.312   13.756
  369.250   54.772  182.851    0.398    0.322   10.934
  369.500   54.772  171.488    0.396    0.281    8.526
  369.750   62.863  172.521    0.402    0.256    6.522
  370.000   77.801  174.587    0.415    0.230    6.277
  370.250   87.137  176.653    0.440    0.228    5.927
  370.500   96.473  177.686    0.463    0.225    5.491
  370.750  107.054  179.752    0.466    0.205    5.086
  371.000  117.635  180.785    0.436    0.158    5.086
  371.250  118.257  180.785    0.395    0.113    5.705
  371.500  115.768  179.752    0.397    0.100    6.522
  371.750  104.564  179.752    0.390    0.088    7.041
  372.000  100.830  178.719    0.381    0.091    8.050
  372.250  106.432  178.719    0.387    0.105    7.601
  372.500  117.012  177.686    0.418    0.115    7.177
  372.750  122.614  177.686    0.425    0.120    6.777
  373.000  123.237  176.653    0.427    0.132    6.522
  373.250  123.859  176.653    0.421    0.139    6.277
  373.500  123.859  175.620    0.412    0.132    6.158
  373.750  124.481  175.620    0.417    0.125    6.399
  374.000  128.216  174.587    0.427    0.124    6.648
  374.250  131.950  173.554    0.423    0.124    6.777
  374.500  133.817  173.554    0.422    0.128    7.041
  374.750  133.817  173.554    0.421    0.133    7.177
