~VERSION INFORMATION
 VERS.                 2.0:   CWLS LOG ASCII STANDARD -VERSION 2.0
 WRAP.                  NO:   ONE LINE PER DEPTH STEP
~WELL INFORMATION BLOCK
#MNEM.UNIT           DATA                    DESCRIPTION OF MNEMONIC
#---------    -------------------            -------------------------------
# Generated from Intellog Unique Number	CW_79_81/WELL/2440
WELL.         01-08-080-21W4                 : Well_name    - WELL
LOC .         00/01-08-080-21W4/0            : Location     - LOCATION
UWI .         00/01-08-080-21W4/0            : Uwi          - UNIQUE WELL ID
ENTR.         MAX                            : Entered      - ENTERED BY
SRVC.         SCHLUMBERGER                   : Scn          - SERVICE COMPANY
STRT.M        215                            : top_depth    - START DEPTH
STOP.M        449.75                         : bot_depth    - STOP DEPTH
STEP.M        0.25                           : increment    - STEP LENGTH
 NULL. -999.2500:NULL Value
~CURVE INFORMATION BLOCK
#MNEM UNIT       ERCB CURVE CODE    CURVE DESCRIPTION
#-----------   ------------------   ----------------------------------
DEPT.M        00 001 00 00         : DEPTH        - DEPTH
ILD .OHMM     00 120 00 00         : RESD         - DEEP RESISTIVITY (DIL)
NPHI.V/V      00 330 00 00         : PHIN         - NEUTRON POROSITY (SANDSTONE)
DPHI.V/V      00 890 00 00         : PHID         - DENSITY POROSITY (SANDSTONE)
GR  .API      00 310 00 00         : GR           - GAMMA RAY
~PARAMETER INFORMATION
#MNEM.UNIT           DATA             DESCRIPTION OF MNEMONIC
#---------         -----------     ------------------------------
GL  .M        583.3                : gl           - GROUND LEVEL ELEVATION
EREF.M        587                  : kb           - ELEVATION OF DEPTH REFERENCE
DATM.M        583.3                : datum        - DATUM ELEVATION
TDD .M        507                  : tdd          - TOTAL DEPTH DRILLER
RUN .         ONE                  : Run          - RUN NUMBER
ENG .         BILL                 : Engineer     - RECORDING ENGINEER
WIT .         JIM                  : Witness      - WITNESSED BY
MUD .         GEL                  : Mud_type     - MUD TYPE
MATR.         SANDSTONE            : Logunit      - NEUTRON MATRIX
TMAX.C        23                   : BHT          - MAXIMUM RECORDED TEMPERATURE
BHTD.M        507                  : BHTDEP       - MAXIMUM RECORDED TEMPERATURE
MATR.         1                    : LOGUNIT      - NEUTRON MATRIX
RMT .C        15                   : MDTP         - TEMPERATURE OF MUD
NEUT.         1                    : NEUTRON      - NEUTRON TYPE
RESI.         0                    : RESIST       - RESISTIVITY TYPE
RMC .OHMM     2.33                 : RMC          - RESISTIVITY OF MUD CAKE
RMF .OHMM     2.19                 : RMF          - RESISTIVITY OF MUD FILTRATE
SUFT.C        -15                  : SUFT         - SURFACE TEMPERATURE
~A  DEPTH     RESD     PHIN     PHID       GR
  215.000    4.025    0.421    0.160   71.979
  215.250    4.052    0.398    0.140   70.725
  215.500    3.980    0.437    0.121   66.339
  215.750    3.835    0.491    0.099   61.963
  216.000    3.632    0.533    0.082   59.874
  216.250    3.298    0.546    0.102   62.068
  216.500    2.938    0.539    0.189   66.244
  216.750    2.831    0.540    0.210   67.410
  217.000    2.743    0.528    0.219   64.989
  217.250    2.867    0.496    0.221   60.518
  217.500    3.339    0.452    0.219   55.147
  217.750    4.675    0.423    0.213   48.672
  218.000    7.115    0.426    0.207   43.868
  218.250   10.215    0.432    0.199   40.617
  218.500   16.561    0.421    0.206   39.049
  218.750   26.884    0.406    0.220   38.538
  219.000   35.488    0.396    0.231   38.627
  219.250   42.922    0.398    0.232   39.133
  219.500   48.257    0.405    0.230   39.610
  219.750   53.828    0.409    0.226   39.879
  220.000   56.984    0.404    0.219   39.928
  220.250   58.254    0.388    0.213   39.911
  220.500   58.877    0.368    0.210   39.899
  220.750   60.542    0.357    0.216   39.879
  221.000   61.784    0.344    0.224   39.861
  221.250   63.807    0.334    0.228   39.655
  221.500   65.727    0.331    0.228   39.377
  221.750   65.089    0.343    0.226   39.197
  222.000   61.441    0.372    0.226   39.097
  222.250   55.354    0.419    0.237   38.917
  222.500   50.436    0.426    0.244   39.101
  222.750   45.846    0.414    0.249   39.702
  223.000   41.780    0.403    0.251   40.266
  223.250   38.218    0.396    0.250   40.674
  223.500   35.020    0.397    0.247   40.880
  223.750   31.722    0.404    0.241   40.942
  224.000   30.341    0.400    0.232   41.129
  224.250   29.627    0.396    0.230   41.490
  224.500   29.032    0.398    0.241   41.747
  224.750   28.588    0.403    0.252   41.850
  225.000   28.309    0.407    0.256   41.727
  225.250   28.180    0.405    0.254   41.033
  225.500   28.149    0.392    0.263   39.788
  225.750   27.979    0.382    0.262   39.573
  226.000   27.441    0.384    0.262   40.218
  226.250   26.674    0.393    0.261   41.220
  226.500   25.693    0.407    0.256   42.234
  226.750   24.150    0.419    0.249   43.168
  227.000   22.874    0.420    0.243   43.646
  227.250   22.502    0.408    0.235   43.774
  227.500   22.517    0.399    0.232   43.645
  227.750   22.251    0.396    0.235   43.436
  228.000   21.447    0.398    0.243   43.267
  228.250   19.924    0.401    0.246   43.258
  228.500   18.381    0.407    0.248   43.536
  228.750   16.782    0.413    0.248   44.136
  229.000   14.951    0.413    0.240   45.077
  229.250   13.194    0.414    0.228   46.386
  229.500   11.607    0.420    0.219   47.791
  229.750   10.008    0.429    0.213   48.799
  230.000    9.214    0.434    0.200   49.177
  230.250    9.241    0.425    0.191   48.877
  230.500    9.894    0.408    0.190   48.186
  230.750   11.375    0.389    0.206   47.174
  231.000   13.762    0.372    0.232   45.971
  231.250   16.494    0.356    0.248   44.646
  231.500   19.111    0.355    0.248   44.032
  231.750   19.167    0.352    0.233   44.728
  232.000   17.867    0.351    0.220   47.308
  232.250   15.919    0.353    0.210   51.559
  232.500   13.757    0.362    0.204   56.604
  232.750   11.196    0.386    0.195   59.873
  233.000    9.645    0.403    0.188   54.713
  233.250    8.969    0.399    0.203   51.663
  233.500    9.411    0.393    0.218   49.785
  233.750   10.369    0.394    0.229   48.702
  234.000   11.422    0.406    0.236   47.975
  234.250   12.455    0.420    0.239   46.613
  234.500   14.079    0.407    0.243   44.139
  234.750   15.642    0.393    0.282   43.728
  235.000   15.947    0.380    0.271   43.895
  235.250   15.543    0.372    0.248   44.470
  235.500   14.965    0.370    0.228   45.247
  235.750   14.411    0.372    0.211   46.056
  236.000   14.215    0.374    0.202   46.387
  236.250   14.473    0.377    0.196   46.067
  236.500   14.540    0.380    0.194   46.271
  236.750   14.412    0.383    0.192   47.114
  237.000   14.159    0.386    0.189   48.103
  237.250   13.859    0.392    0.179   48.133
  237.500   13.606    0.390    0.177   48.118
  237.750   13.327    0.379    0.182   49.002
  238.000   12.827    0.363    0.178   51.706
  238.250   12.129    0.349    0.169   55.527
  238.500   11.328    0.343    0.159   59.433
  238.750   10.309    0.351    0.148   62.380
  239.000    9.257    0.361    0.130   63.945
  239.250    8.558    0.372    0.123   65.256
  239.500    8.124    0.381    0.122   66.636
  239.750    7.783    0.380    0.120   68.015
  240.000    7.488    0.370    0.117   69.324
  240.250    7.236    0.366    0.121   70.725
  240.500    7.103    0.387    0.117   71.894
  240.750    6.979    0.392    0.111   73.017
  241.000    6.903    0.390    0.107   74.282
  241.250    6.908    0.384    0.106   75.593
  241.500    7.057    0.375    0.112   76.780
  241.750    7.581    0.365    0.130   77.676
  242.000    8.203    0.359    0.134   78.071
  242.250    8.848    0.351    0.119   77.863
  242.500    9.224    0.347    0.110   76.695
  242.750    9.498    0.348    0.104   75.043
  243.000    9.832    0.355    0.100   73.002
  243.250   10.517    0.366    0.107   68.696
  243.500   11.462    0.367    0.136   60.735
  243.750   12.892    0.349    0.160   51.043
  244.000   15.181    0.339    0.195   44.200
  244.250   18.640    0.341    0.228   40.011
  244.500   23.496    0.354    0.252   37.931
  244.750   29.842    0.373    0.262   36.979
  245.000   34.792    0.382    0.264   36.569
  245.250   44.518    0.366    0.282   35.933
  245.500   53.619    0.345    0.252   34.874
  245.750   63.214    0.329    0.230   33.411
  246.000   75.039    0.322    0.228   31.900
  246.250   89.178    0.324    0.224   30.949
  246.500   95.736    0.327    0.220   30.538
  246.750   92.015    0.329    0.217   30.473
  247.000   84.465    0.332    0.212   30.786
  247.250   77.307    0.329    0.212   31.193
  247.500   71.688    0.322    0.219   31.472
  247.750   65.864    0.318    0.234   31.513
  248.000   60.089    0.323    0.238   31.791
  248.250   56.543    0.335    0.238   31.585
  248.500   55.168    0.349    0.236   30.955
  248.750   56.380    0.362    0.229   30.239
  249.000   60.599    0.367    0.226   29.888
  249.250   69.300    0.351    0.250   30.616
  249.500   74.173    0.336    0.243   31.388
  249.750   74.449    0.329    0.240   30.708
  250.000   72.336    0.324    0.237   29.744
  250.250   69.343    0.324    0.233   28.781
  250.500   67.108    0.326    0.228   28.101
  250.750   67.888    0.335    0.223   28.479
  251.000   71.062    0.339    0.218   30.930
  251.250   72.769    0.341    0.230   38.304
  251.500   55.098    0.332    0.238   44.081
  251.750   34.030    0.323    0.237   50.867
  252.000   20.271    0.325    0.223   60.331
  252.250   11.030    0.361    0.188   76.486
  252.500    6.865    0.435    0.144   92.879
  252.750    5.672    0.470    0.096   95.820
  253.000    5.024    0.478    0.081   96.971
  253.250    4.627    0.478    0.074   97.879
  253.500    4.323    0.477    0.063   99.107
  253.750    3.911    0.481    0.042  100.353
  254.000    3.528    0.488    0.025  100.980
  254.250    3.191    0.500    0.041  100.836
  254.500    3.117    0.513    0.086   99.601
  254.750    3.190    0.511    0.126   97.846
  255.000    3.401    0.491    0.147   95.969
  255.250    3.947    0.452    0.149   93.645
  255.500    4.619    0.418    0.144   90.864
  255.750    5.328    0.393    0.137   87.956
  256.000    6.118    0.376    0.127   86.675
  256.250    6.738    0.375    0.116   86.395
  256.500    6.978    0.388    0.109   86.667
  256.750    6.832    0.406    0.117   87.395
  257.000    6.530    0.410    0.117   88.268
  257.250    6.189    0.414    0.111   89.485
  257.500    5.853    0.423    0.103   90.807
  257.750    5.505    0.436    0.094   91.891
  258.000    5.236    0.450    0.089   92.347
  258.250    5.230    0.448    0.093   90.154
