~VERSION INFORMATION
 VERS.                 2.0:   CWLS LOG ASCII STANDARD -VERSION 2.0
 WRAP.                  NO:   ONE LINE PER DEPTH STEP
~WELL INFORMATION BLOCK
#MNEM.UNIT           DATA                    DESCRIPTION OF MNEMONIC
#---------    -------------------            -------------------------------
# Generated from Intellog Unique Number	CX_WELLS/WELL/3716
WELL.         PETROREP HOUSE                 : Well_name    - WELL
LOC .         00/01-05-085-15W4/0            : Location     - LOCATION
UWI .         00/01-05-085-15W400            : Uwi          - UNIQUE WELL ID
ENTR.         T                              : Entered      - ENTERED BY
SRVC.         SCHLUMBERGER                   : Scn          - SERVICE COMPANY
STRT.M        100                            : top_depth    - START DEPTH
STOP.M        280                            : bot_depth    - STOP DEPTH
STEP.M        0.25                           : increment    - STEP LENGTH
 NULL. -999.2500:NULL Value
~CURVE INFORMATION BLOCK
#MNEM UNIT       ERCB CURVE CODE    CURVE DESCRIPTION
#-----------   ------------------   ----------------------------------
DEPT.M        00 001 00 00         : DEPTH        - DEPTH
GR  .API      00 310 00 00         : GR           - GAMMA RAY
NPHI.V/V      00 330 00 00         : PHIN         - NEUTRON POROSITY (SANDSTONE)
DPHI.V/V      00 890 00 00         : PHID         - DENSITY POROSITY (SANDSTONE)
ILD .OHMM     00 120 00 00         : RESD         - DEEP RESISTIVITY (DIL)
~PARAMETER INFORMATION
#MNEM.UNIT           DATA             DESCRIPTION OF MNEMONIC
#---------         -----------     ------------------------------
GL  .M        531.9                : gl           - GROUND LEVEL ELEVATION
EREF.M        535.5                : kb           - ELEVATION OF DEPTH REFERENCE
DATM.M        535.5                : datum        - DATUM ELEVATION
TDD .M        285                  : tdd          - TOTAL DEPTH DRILLER
RUN .         ONE                  : Run          - RUN NUMBER
ENG .         BILL                 : Engineer     - RECORDING ENGINEER
WIT .         JIM                  : Witness      - WITNESSED BY
MUD .         GEL                  : Mud_type     - MUD TYPE
MATR.         SANDSTONE            : Logunit      - NEUTRON MATRIX
TMAX.C        18                   : BHT          - MAXIMUM RECORDED TEMPERATURE
BHTD.M        285                  : BHTDEP       - MAXIMUM RECORDED TEMPERATURE
MATR.         1                    : LOGUNIT      - NEUTRON MATRIX
RMT .C        20                   : MDTP         - TEMPERATURE OF MUD
NEUT.         1                    : NEUTRON      - NEUTRON TYPE
RESI.         2.4                  : RESIST       - RESISTIVITY TYPE
RMC .OHMM     1.8                  : RMC          - RESISTIVITY OF MUD CAKE
RMF .OHMM     2.4                  : RMF          - RESISTIVITY OF MUD FILTRATE
SUFT.C        4                    : SUFT         - SURFACE TEMPERATURE
~A  DEPTH       GR     PHIN     PHID     RESD
# ...
  143.500   45.873    0.360    0.176   32.957
  143.750   49.715    0.340    0.176   34.283
  144.000   52.270    0.317    0.181   34.349
  144.250   56.738    0.315    0.189   31.890
  144.500   58.092    0.330    0.201   28.506
  144.750   57.500    0.348    0.319   25.969
  145.000   55.723    0.374    0.341   23.213
  145.250   55.773    0.379    0.342   21.543
  145.500   57.077    0.383    0.342   19.633
  145.750   60.292    0.388    0.344   19.287
  146.000   62.865    0.395    0.304   18.605
  146.250   63.559    0.398    0.312   17.947
  146.500   61.748    0.396    0.344   17.968
  146.750   60.563    0.402    0.370   17.326
  147.000   61.240    0.421    0.389   16.707
  147.250   61.308    0.440    0.397   16.104
  147.500   57.636    0.437    0.372   15.529
  147.750   57.077    0.427    0.359   15.851
  148.000   58.397    0.418    0.337   16.816
  148.250   62.865    0.426    0.330   17.164
  148.500   66.064    0.438    0.324   16.861
  148.750   64.879    0.450    0.327   15.954
  149.000   61.799    0.446    0.334   14.534
  149.250   56.858    0.436    0.336   13.240
  149.500   53.811    0.427    0.337   13.261
  149.750   56.993    0.415    0.335   13.281
  150.000   62.070    0.411    0.322   13.301
  150.250   75.305    0.418    0.298   12.354
  150.500   88.539    0.426    0.286   11.465
  150.750   98.626    0.434    0.265   10.056
  151.000  111.860    0.442    0.237    8.333
  151.250  112.554    0.448    0.225    7.040
  151.500  112.639    0.453    0.216    6.533
  151.750  113.959    0.455    0.216    6.300
  152.000  113.417    0.464    0.213    6.193
  152.250  112.825    0.491    0.210    5.972
  152.500  111.657    0.490    0.210    5.869
  152.750  111.082    0.477    0.210    5.765
  153.000  110.541    0.471    0.208    5.666
  153.250  112.470    0.467    0.205    5.464
  153.500  115.076    0.467    0.205    5.371
  153.750  114.518    0.472    0.202    5.281
  154.000  115.212    0.503    0.197    5.287
  154.250  115.906    0.504    0.194    5.293
  154.500  116.583    0.503    0.192    5.205
  154.750  116.650    0.497    0.195    5.113
  155.000  115.466    0.494    0.204    5.025
  155.250  114.907    0.486    0.210    4.940
  155.500  116.854    0.474    0.219    4.855
  155.750  118.817    0.469    0.219    4.769
  156.000  120.154    0.473    0.210    4.689
  156.250  121.457    0.479    0.202    4.696
  156.500  122.151    0.494    0.195    4.617
  156.750  123.471    0.493    0.188    4.624
  157.000  124.791    0.485    0.187    4.542
  157.250  126.737    0.472    0.187    4.549
  157.500  126.805    0.473    0.190    4.469
  157.750  125.621    0.478    0.193    4.476
  158.000  124.453    0.487    0.193    4.398
  158.250  124.521    0.499    0.194    4.405
  158.500  125.841    0.512    0.194    4.329
  158.750  125.909    0.513    0.195    4.258
  159.000  124.724    0.507    0.202    4.184
  159.250  122.287    0.501    0.207    4.112
  159.500  122.355    0.499    0.209    4.118
  159.750  119.918    0.501    0.212    4.048
  160.000  116.228    0.502    0.223    4.053
  160.250  110.661    0.503    0.237    4.059
  160.500  108.207    0.496    0.250    4.066
  160.750  105.770    0.481    0.253    4.072
  161.000  103.333    0.462    0.262    4.080
  161.250  100.896    0.444    0.270    4.161
  161.500   96.597    0.433    0.285    4.330
  161.750   92.908    0.422    0.290    4.678
  162.000   88.592    0.416    0.283    5.350
  162.250   84.903    0.412    0.277    6.118
  162.500   83.701    0.413    0.283    6.997
  162.750   78.777    0.414    0.293    8.002
  163.000   76.323    0.417    0.308    8.814
  163.250   75.138    0.419    0.315    9.894
  163.500   73.954    0.420    0.325   10.694
  163.750   74.021    0.420    0.327   10.907
  164.000   77.220    0.420    0.319   11.350
  164.250   77.288    0.420    0.307   11.585
  164.500   77.999    0.420    0.301   11.598
  164.750   83.076    0.420    0.294   11.842
  165.000   85.665    0.422    0.286   11.861
  165.250   86.359    0.424    0.275   11.879
  165.500   87.679    0.424    0.266   11.459
  165.750   90.252    0.422    0.260   11.261
  166.000   94.720    0.415    0.254   10.859
  166.250   97.292    0.420    0.254   10.274
  166.500   99.865    0.425    0.256   10.093
  166.750  100.558    0.430    0.258    9.740
  167.000   99.983    0.440    0.257    9.751
  167.250  100.068    0.447    0.252    9.766
  167.500  100.135    0.451    0.252    9.777
  167.750   99.577    0.451    0.252    9.258
  168.000   98.392    0.446    0.253    9.265
  168.250   97.851    0.439    0.253    8.938
  168.500   97.885    0.437    0.251    8.787
  168.750   98.596    0.434    0.250    8.794
  169.000   98.037    0.430    0.247    8.489
  169.250   96.227    0.427    0.245    8.336
  169.500   95.668    0.426    0.243    7.894
  169.750   98.884    0.426    0.244    7.609
  170.000   98.951    0.432    0.250    7.334
  170.250   97.750    0.442    0.255    7.208
  170.500   95.313    0.444    0.208    7.360
  170.750   85.988    0.436    0.177    7.659
  171.000   87.934    0.440    0.206    7.964
  171.250   89.897    0.448    0.237    8.284
  171.500   89.948    0.440    0.262    8.617
  171.750   88.764    0.433    0.272    8.627
  172.000   86.327    0.429    0.252    8.806
  172.250   84.533    0.427    0.233    8.657
  172.500   87.715    0.427    0.252    8.511
  172.750   92.809    0.431    0.262    8.207
  173.000   96.024    0.433    0.277    7.768
  173.250   93.587    0.443    0.293    7.344
  173.500   91.167    0.457    0.298    6.567
  173.750   89.949    0.465    0.285    5.983
  174.000   90.033    0.458    0.272    5.771
  174.250   90.101    0.449    0.257    5.776
  174.500   90.169    0.434    0.248    6.123
  174.750   87.089    0.422    0.253    6.491
  175.000   82.147    0.423    0.278    6.881
  175.250   80.336    0.425    0.282    7.295
  175.500   82.299    0.422    0.293    7.737
  175.750   84.872    0.421    0.303    8.051
  176.000   85.566    0.425    0.301    8.218
  176.250   85.007    0.434    0.299    8.230
  176.500   85.075    0.445    0.290    8.397
  176.750   86.395    0.444    0.277    8.410
  177.000   87.732    0.440    0.275    8.268
  177.250   88.409    0.440    0.273    8.278
  177.500   89.120    0.442    0.272    8.135
  177.750   89.188    0.446    0.272    7.844
  178.000   87.377    0.452    0.268    7.709
  178.250   88.054    0.454    0.261    7.436
  178.500   90.017    0.454    0.255    7.445
  178.750   92.607    0.455    0.260    7.319
  179.000   93.893    0.459    0.265    7.190
  179.250   95.873    0.456    0.271    7.071
  179.500   97.193    0.452    0.269    6.946
  179.750   98.513    0.439    0.272    6.829
  180.000   98.581    0.436    0.276    6.708
  180.250   96.770    0.443    0.282    6.593
  180.500   96.195    0.453    0.287    6.481
  180.750   95.044    0.461    0.286    6.494
  181.000   95.078    0.467    0.284    6.504
  181.250   95.163    0.467    0.281    6.633
  181.500   95.857    0.466    0.280    6.770
  181.750   95.924    0.466    0.290    7.043
  182.000   95.366    0.468    0.291    7.326
  182.250   94.181    0.467    0.284    7.921
  182.500   95.502    0.469    0.268    7.933
  182.750   96.195    0.472    0.260    7.793
  183.000   92.523    0.475    0.263    7.521
  183.250   87.564    0.481    0.264    7.249
  183.500   83.858    0.477    0.266    6.988
  183.750   76.429    0.449    0.296    6.614
  184.000   74.601    0.448    0.310    6.378
  184.250   74.059    0.443    0.317    7.023
  184.500   73.501    0.437    0.312    7.729
  184.750   71.690    0.427    0.301    8.674
  185.000   70.506    0.401    0.263   11.118
  185.250   70.573    0.388    0.235   12.715
  185.500   70.624    0.393    0.288   14.268
  185.750   72.621    0.407    0.335   15.710
  186.000   73.924    0.413    0.336   16.980
  186.250   74.602    0.414    0.329   18.014
  186.500   76.582    0.414    0.322   18.380
  186.750   77.885    0.412    0.317   18.415
