~VERSION INFORMATION
 VERS.                 2.0:   CWLS LOG ASCII STANDARD -VERSION 2.0
 WRAP.                  NO:   ONE LINE PER DEPTH STEP
~WELL INFORMATION BLOCK
#MNEM.UNIT           DATA                    DESCRIPTION OF MNEMONIC
#---------    -------------------            -------------------------------
# Generated from Intellog Unique Number	CW_73_75/WELL/185
WELL.         BOWTEX MARTEN HILLS 01-04      : Well_name    - WELL
LOC .         00/01-04-075-23W4/0            : Location     - LOCATION
UWI .         00/01-04-075-23W4/0            : Uwi          - UNIQUE WELL ID
ENTR.         JAYE                           : Entered      - ENTERED BY
SRVC.         WESTERN ATLAS                  : Scn          - SERVICE COMPANY
DATE.         18 MAR 88                      : Date         - LOG DATE
STRT.M        435                            : top_depth    - START DEPTH
STOP.M        640                            : bot_depth    - STOP DEPTH
STEP.M        0.25                           : increment    - STEP LENGTH
 NULL. -999.2500:NULL Value
~CURVE INFORMATION BLOCK
#MNEM UNIT       ERCB CURVE CODE    CURVE DESCRIPTION
#-----------   ------------------   ----------------------------------
DEPT.M        00 001 00 00         : DEPTH        - DEPTH
ILD .OHMM     00 120 00 00         : RESD         - DEEP RESISTIVITY (DIL)
NPHI.V/V      00 330 00 00         : PHIN         - NEUTRON POROSITY (SANDSTONE)
DPHI.V/V      00 890 00 00         : PHID         - DENSITY POROSITY (SANDSTONE)
GR  .API      00 310 00 00         : GR           - GAMMA RAY
CALI.MM       00 280 01 00         : CAL          - CALIPER
~PARAMETER INFORMATION
#MNEM.UNIT           DATA             DESCRIPTION OF MNEMONIC
#---------         -----------     ------------------------------
GL  .M        715                  : gl           - GROUND LEVEL ELEVATION
EREF.M        718.3                : kb           - ELEVATION OF DEPTH REFERENCE
DATM.M        715                  : datum        - DATUM ELEVATION
TDD .M        640                  : tdd          - TOTAL DEPTH DRILLER
RUN .         ONE                  : Run          - RUN NUMBER
ENG .         NOWAKOWSKI           : Engineer     - RECORDING ENGINEER
WIT .         NUNEZ                : Witness      - WITNESSED BY
BASE.         RDD                  : Branch       - HOME BASE OF LOGGING UNIT
MUD .         GEL CHEM             : Mud_type     - MUD TYPE
MATR.         SANDSTONE            : Logunit      - NEUTRON MATRIX
TMAX.C        30                   : BHT          - MAXIMUM RECORDED TEMPERATURE
BHTD.M        640.2                : BHTDEP       - MAXIMUM RECORDED TEMPERATURE
RMT .C        19                   : MDTP         - TEMPERATURE OF MUD
MUDD.KG/M     1150                 : MWT          - MUD DENSITY
NEUT.         1                    : NEUTRON      - NEUTRON TYPE
RESI.         0                    : RESIST       - RESISTIVITY TYPE
RM  .OHMM     3.4                  : RM           - RESISTIVITY OF MUD
RMC .OHMM     4.65                 : RMC          - RESISTIVITY OF MUD CAKE
RMF .OHMM     4.78                 : RMF          - RESISTIVITY OF MUD FILTRATE
SUFT.C        0                    : SUFT         - SURFACE TEMPERATURE
~A  DEPTH     RESD     PHIN     PHID       GR      CAL
  435.000    2.384    0.559    0.236  114.128  224.950
  435.250    2.381    0.514    0.240  115.863  227.989
  435.500    2.347    0.487    0.240  113.886  227.882
  435.750    2.352    0.488    0.234  107.025  226.097
  436.000    2.389    0.497    0.236  107.063  225.780
  436.250    2.449    0.528    0.238  109.861  225.987
  436.500    2.491    0.562    0.228  113.664  226.405
  436.750    2.559    0.559    0.218  116.900  226.088
  437.000    2.638    0.542    0.222  119.632  228.602
  437.250    2.664    0.518    0.226  119.537  228.705
  437.500    2.680    0.501    0.228  109.478  227.549
  437.750    2.622    0.491    0.227  106.506  226.393
  438.000    2.522    0.507    0.232  109.366  225.866
  438.250    2.466    0.522    0.241  116.987  226.703
  438.500    2.426    0.536    0.249  114.829  228.588
  438.750    2.364    0.552    0.239  103.955  228.796
  439.000    2.266    0.556    0.244   97.348  223.760
  439.250    2.171    0.556    0.229   93.873  219.667
  439.500    2.053    0.544    0.236   99.487  220.399
  439.750    1.967    0.506    0.250   97.894  227.948
  440.000    1.972    0.589    0.261   97.367  230.357
  440.250    2.048    0.610    0.280   90.256  227.209
  440.500    2.289    0.543    0.308   78.692  222.697
  440.750    2.873    0.508    0.314   69.888  216.193
  441.000    3.634    0.492    0.305   62.088  206.542
  441.250    4.362    0.469    0.300   64.570  204.548
  441.500    5.304    0.444    0.303   69.308  204.231
  441.750    7.179    0.463    0.318   69.156  203.494
  442.000    8.408    0.487    0.341   69.317  203.596
  442.250    8.932    0.447    0.347   73.188  203.909
  442.500    8.970    0.386    0.257   71.460  204.011
  442.750    8.958    0.374    0.199   74.635  203.380
  443.000    8.779    0.469    0.231   73.920  203.902
  443.250    8.490    0.493    0.308   71.511  204.739
  443.500    8.090    0.512    0.336   64.083  205.471
  443.750    7.693    0.526    0.336   59.732  207.251
  444.000    7.127    0.526    0.338   67.104  208.298
  444.250    6.639    0.504    0.338   69.714  208.400
  444.500    6.232    0.491    0.325   67.935  207.978
  444.750    5.751    0.487    0.306   67.027  207.347
  445.000    5.268    0.498    0.281   69.765  207.764
  445.250    4.944    0.512    0.276   73.247  209.545
  445.500    4.676    0.498    0.282   76.606  210.801
  445.750    4.480    0.467    0.276   70.687  210.169
  446.000    4.465    0.442    0.272   71.787  209.118
  446.250    4.476    0.409    0.267   76.277  208.277
  446.500    4.452    0.386    0.271   81.270  208.379
  446.750    4.290    0.403    0.282   83.875  212.677
  447.000    4.065    0.444    0.289   88.240  219.177
  447.250    3.880    0.458    0.278   93.671  225.991
  447.500    3.541    0.425    0.267   98.852  221.060
  447.750    3.324    0.387    0.256  104.279  219.275
  448.000    3.251    0.449    0.259  117.294  219.167
  448.250    3.283    0.535    0.264  130.123  227.555
  448.500    3.541    0.542    0.255  128.532  232.167
  448.750    4.241    0.470    0.235  112.575  225.558
  449.000    4.678    0.412    0.269   89.224  213.390
  449.250    4.823    0.388    0.301   84.748  203.845
  449.500    4.954    0.391    0.317   85.477  206.254
  449.750    5.040    0.416    0.255   89.898  207.301
  450.000    5.062    0.437    0.198   83.978  208.872
  450.250    5.035    0.453    0.185   80.941  210.128
  450.500    5.047    0.452    0.242   91.892  211.384
  450.750    5.021    0.425    0.264   90.483  212.325
  451.000    4.893    0.429    0.250   92.213  213.162
  451.250    4.715    0.459    0.238  109.435  214.313
  451.500    4.392    0.448    0.235  117.620  217.038
  451.750    4.130    0.428    0.237  127.503  217.770
  452.000    4.040    0.446    0.240  121.270  215.250
  452.250    4.173    0.455    0.258  109.265  212.207
  452.500    4.416    0.451    0.291   92.876  209.058
  452.750    4.745    0.453    0.306   81.690  205.281
  453.000    4.965    0.415    0.229   76.832  204.754
  453.250    4.949    0.377    0.184   76.930  207.163
  453.500    5.102    0.409    0.172   80.229  210.098
  453.750    5.028    0.458    0.209   87.037  212.402
  454.000    4.873    0.478    0.238  100.120  214.917
  454.250    4.713    0.480    0.238  106.048  211.978
  454.500    4.558    0.476    0.244  109.723  213.130
  454.750    4.434    0.455    0.255  106.562  221.832
  455.000    4.436    0.420    0.268   93.117  213.859
  455.250    4.455    0.403    0.281   75.597  206.831
  455.500    4.473    0.423    0.284   72.873  205.675
  455.750    4.484    0.454    0.285   72.157  205.777
  456.000    4.502    0.468    0.289   71.440  205.775
  456.250    4.479    0.449    0.296   74.241  206.822
  456.500    4.448    0.429    0.301   78.477  207.763
  456.750    4.475    0.423    0.290   77.571  207.551
  457.000    4.579    0.447    0.252   90.967  210.485
  457.250    4.783    0.478    0.247  101.536  215.412
  457.500    4.996    0.505    0.269  104.274  216.563
  457.750    5.238    0.466    0.259  101.615  224.741
  458.000    5.461    0.395    0.242   96.695  224.424
  458.250    5.715    0.378    0.233   88.828  216.976
  458.500    6.038    0.362    0.232   83.976  214.142
  458.750    6.307    0.367    0.248   90.471  212.356
  459.000    6.625    0.388    0.263   90.193  211.305
  459.250    7.225    0.411    0.277   77.186  207.108
  459.500    8.290    0.441    0.278   64.997  204.589
  459.750    9.820    0.448    0.274   57.824  206.265
  460.000   11.897    0.428    0.298   51.276  210.667
  460.250   13.572    0.439    0.326   43.412  211.294
  460.500   12.386    0.387    0.337   38.368  210.138
  460.750   10.194    0.355    0.333   41.353  208.668
  461.000    8.485    0.353    0.321   58.445  206.883
  461.250    6.984    0.373    0.305   68.702  206.356
  461.500    6.196    0.380    0.280   83.914  206.563
  461.750    5.518    0.387    0.256   93.984  208.134
  462.000    5.199    0.396    0.241   99.167  210.439
  462.250    4.926    0.413    0.236  100.835  212.010
  462.500    4.658    0.427    0.236  102.623  211.483
  462.750    4.617    0.381    0.236  104.793  211.586
  463.000    4.627    0.362    0.232  104.953  213.786
  463.250    4.673    0.370    0.235  104.237  217.349
  463.500    4.537    0.421    0.245  113.993  218.920
  463.750    4.025    0.459    0.230  118.421  220.700
  464.000    3.612    0.446    0.187  117.015  222.061
  464.250    3.247    0.481    0.223  112.536  224.576
  464.500    3.013    0.512    0.243  113.579  224.679
  464.750    2.781    0.564    0.235  120.009  229.081
  465.000    2.610    0.585    0.251  116.723  233.273
  465.250    2.558    0.583    0.270  108.422  225.825
  465.500    2.512    0.574    0.294  107.897  232.220
  465.750    2.489    0.560    0.279  121.724  243.334
  466.000    2.486    0.552    0.243  126.840  236.620
  466.250    2.515    0.553    0.275  125.311  239.764
  466.500    2.602    0.545    0.302  122.023  239.342
  466.750    2.838    0.520    0.310  127.201  233.991
  467.000    3.202    0.492    0.278  130.876  219.831
  467.250    3.639    0.479    0.235  125.958  213.851
  467.500    3.874    0.468    0.244  117.030  218.568
  467.750    4.061    0.448    0.250  118.446  228.634
  468.000    4.227    0.415    0.243  121.430  229.890
  468.250    4.341    0.405    0.232  127.736  217.827
  468.500    4.367    0.458    0.215  135.612  216.252
  468.750    4.345    0.484    0.214  135.522  216.564
  469.000    4.347    0.477    0.230  132.490  219.708
  469.250    4.398    0.449    0.238  131.833  225.998
  469.500    4.400    0.432    0.233  121.022  222.745
  469.750    4.502    0.449    0.216  111.339  216.345
  470.000    4.598    0.481    0.210  104.796  213.407
  470.250    4.670    0.511    0.231  100.004  212.146
  470.500    4.805    0.508    0.260   95.335  210.361
  470.750    5.038    0.464    0.283   92.987  207.737
  471.000    5.126    0.454    0.273   98.041  205.322
  471.250    5.128    0.451    0.262   92.623  204.796
