~VERSION INFORMATION
 VERS.                 2.0:   CWLS LOG ASCII STANDARD -VERSION 2.0
 WRAP.                  NO:   ONE LINE PER DEPTH STEP
~WELL INFORMATION BLOCK
#MNEM.UNIT           DATA                    DESCRIPTION OF MNEMONIC
#---------    -------------------            -------------------------------
# Generated from Intellog Unique Number	CN_94_101/WELL/3431
WELL.         PARMOUNT RES                   : Well_name    - WELL
LOC .         01-01-095-19W4                 : Location     - LOCATION
UWI .         00/01-01-095-19W4/0            : Uwi          - UNIQUE WELL ID
ENTR.         T                              : Entered      - ENTERED BY
SRVC.         SCHLUMBERGER                   : Scn          - SERVICE COMPANY
DATE.         07/22/92                       : Date         - LOG DATE
STRT.M        200                            : top_depth    - START DEPTH
STOP.M        374.75                         : bot_depth    - STOP DEPTH
STEP.M        0.25                           : increment    - STEP LENGTH
 NULL. -999.2500:NULL Value
~CURVE INFORMATION BLOCK
#MNEM UNIT       ERCB CURVE CODE    CURVE DESCRIPTION
#-----------   ------------------   ----------------------------------
DEPT.M        00 001 00 00         : DEPTH        - DEPTH
GR  .API      00 310 00 00         : GR           - GAMMA RAY
CALI.MM       00 280 01 00         : CAL          - CALIPER
NPHI.V/V      00 330 00 00         : PHIN         - NEUTRON POROSITY (SANDSTONE)
DPHI.V/V      00 890 00 00         : PHID         - DENSITY POROSITY (SANDSTONE)
ILD .OHMM     00 120 00 00         : RESD         - DEEP RESISTIVITY (DIL)
~PARAMETER INFORMATION
#MNEM.UNIT           DATA             DESCRIPTION OF MNEMONIC
#---------         -----------     ------------------------------
GL  .M        646.8                : gl           - GROUND LEVEL ELEVATION
EREF.M        650.2                : kb           - ELEVATION OF DEPTH REFERENCE
DATM.M        650.2                : datum        - DATUM ELEVATION
TDD .M        387.5                : tdd          - TOTAL DEPTH DRILLER
RUN .         0.000000             : Run          - RUN NUMBER
MUD .         GEL                  : Mud_type     - MUD TYPE
MATR.         SANDSTONE            : Logunit      - NEUTRON MATRIX
TMAX.C        41                   : BHT          - MAXIMUM RECORDED TEMPERATURE
BHTD.M        387.5                : BHTDEP       - MAXIMUM RECORDED TEMPERATURE
RMT .C        17                   : MDTP         - TEMPERATURE OF MUD
MUDD.KG/M     1120                 : MWT          - MUD DENSITY
NEUT.         1                    : NEUTRON      - NEUTRON TYPE
RESI.         0                    : RESIST       - RESISTIVITY TYPE
RM  .OHMM     5.88                 : RM           - RESISTIVITY OF MUD
RMC .OHMM     6.6                  : RMC          - RESISTIVITY OF MUD CAKE
RMF .OHMM     6.6                  : RMF          - RESISTIVITY OF MUD FILTRATE
SUFT.C        4                    : SUFT         - SURFACE TEMPERATURE
~A  DEPTH       GR      CAL     PHIN     PHID     RESD
# ...
  309.500  103.320  181.017    0.478    0.231    3.905
  309.750  105.809  179.979    0.474    0.225    3.981
  310.000  105.187  177.905    0.468    0.208    3.981
  310.250  102.697  176.867    0.460    0.211    4.217
  310.500  103.320  178.942    0.449    0.223    4.553
  310.750  102.697  177.905    0.399    0.223    5.012
  311.000  100.830  176.867    0.400    0.219    6.072
  311.250  100.830  175.830    0.401    0.219    6.432
  311.500  102.697  174.793    0.405    0.224    6.683
  311.750  105.809  173.755    0.405    0.228    7.079
  312.000  111.411  173.755    0.404    0.225    7.499
  312.250  106.432  175.830    0.403    0.210    7.792
  312.500   98.340  179.979    0.383    0.201    8.414
  312.750   98.340  184.129    0.371    0.209    8.913
  313.000   98.963  183.091    0.363    0.215    9.441
  313.250   98.340  177.905    0.366    0.219    9.624
  313.500   96.473  172.718    0.370    0.219    9.441
  313.750   95.228  178.942    0.374    0.218    9.441
  314.000   98.340  171.680    0.374    0.206    9.441
  314.250   97.095  170.643    0.389    0.193    9.441
  314.500   93.361  169.606    0.419    0.198    9.441
  314.750   91.494  170.643    0.429    0.213    8.254
  315.000  100.207  174.793    0.439    0.223    7.079
  315.250  104.564  179.979    0.436    0.224    6.813
  315.500  103.320  183.091    0.439    0.235    6.683
  315.750  100.207  185.166    0.448    0.239    6.556
  316.000   96.473  186.203    0.446    0.228    6.432
  316.250   95.228  185.166    0.446    0.224    6.432
  316.500  100.207  183.091    0.446    0.228    6.813
  316.750  103.320  178.942    0.444    0.226    7.217
  317.000  105.187  177.905    0.424    0.224    7.644
  317.250  100.207  170.643    0.405    0.228    7.792
  317.500   95.228  167.531    0.403    0.236    7.943
  317.750   94.606  177.905    0.401    0.233    8.097
  318.000   98.340  183.091    0.400    0.215    8.254
  318.250  100.830  184.129    0.389    0.213    8.414
  318.500   99.585  182.054    0.389    0.224    8.414
  318.750   97.095  172.718    0.386    0.226    8.577
  319.000   98.340  176.867    0.386    0.226    8.577
  319.250  100.207  175.830    0.388    0.230    8.577
  319.500   98.963  175.830    0.389    0.234    8.414
  319.750   98.963  173.755    0.389    0.239    8.254
  320.000   97.718  176.867    0.390    0.241    8.097
  320.250   96.473  174.793    0.400    0.231    7.792
  320.500   98.340  174.793    0.396    0.224    7.499
  320.750  100.830  174.793    0.390    0.221    7.644
  321.000  100.830  193.465    0.395    0.219    7.499
  321.250  102.075  192.427    0.403    0.216    7.499
  321.500  102.697  193.465    0.406    0.218    7.499
  321.750  100.207  186.203    0.408    0.216    7.499
  322.000   98.340  183.091    0.419    0.210    7.356
  322.250   98.340  187.241    0.421    0.215    7.356
  322.500   98.963  185.166    0.419    0.224    7.217
  322.750  102.697  184.129    0.400    0.233    7.079
  323.000  104.564  176.867    0.409    0.234    6.813
  323.250  105.187  176.867    0.439    0.233    6.556
  323.500  107.054  189.315    0.438    0.225    6.310
  323.750  105.187  187.241    0.424    0.215    6.072
  324.000   98.963  183.091    0.418    0.198    5.957
  324.250   95.228  183.091    0.413    0.185    5.732
  324.500   96.473  186.203    0.433    0.208    5.517
  324.750  100.207  182.054    0.438    0.234    5.412
  325.000  103.942  178.942    0.475    0.256    5.309
  325.250   97.095  178.942    0.475    0.256    5.208
  325.500   94.606  177.905    0.438    0.251    4.732
  325.750   94.606  176.867    0.416    0.263    4.382
  326.000   96.473  175.830    0.431    0.275    3.905
  326.250  102.697  174.793    0.494    0.286    3.415
  326.500  107.676  171.680    0.498    0.280    3.350
  326.750  109.544  158.195    0.495    0.279    3.102
  327.000  103.942  170.643    0.486    0.280    3.043
  327.250   99.585  183.091    0.463    0.281    3.548
  327.500   96.473  178.942    0.456    0.266    4.137
  327.750   92.116  172.718    0.448    0.248    4.917
  328.000   89.627  174.793    0.440    0.234    5.517
  328.250   90.249  176.867    0.431    0.236    5.957
  328.500   90.249  179.979    0.430    0.230    6.072
  328.750   89.627  174.793    0.429    0.220    5.843
  329.000   93.983  176.867    0.425    0.219    5.597
  329.250  105.187  175.830    0.450    0.224    5.284
  329.500  105.187  179.979    0.469    0.229    4.895
  329.750  102.075  183.091    0.468    0.228    4.990
  330.000  104.375  184.129    0.448    0.228    5.208
  330.250  106.250  185.166    0.439    0.224    5.517
  330.500  105.625  181.017    0.409    0.220    5.732
  330.750  104.375  178.942    0.405    0.208    5.412
  331.000  106.250  179.979    0.406    0.189    5.957
  331.250  108.921  182.054    0.407    0.190    6.813
  331.500  107.676  183.091    0.407    0.195    7.644
  331.750  104.564  183.091    0.396    0.200    8.913
  332.000  104.564  182.054    0.386    0.195    9.261
  332.250  105.809  179.979    0.367    0.182    9.624
  332.500  103.942  175.830    0.328    0.163   10.391
  332.750   92.116  175.830    0.296    0.125   10.391
  333.000   84.647  176.867    0.297    0.096    9.810
  333.250   88.382  177.905    0.308    0.139    9.563
  333.500  100.207  177.905    0.326    0.184    9.204
  333.750  103.320  179.979    0.363    0.180    8.859
  334.000  105.809  182.054    0.375    0.185    8.859
  334.250  106.432  183.091    0.374    0.194    8.691
  334.500  105.187  179.979    0.373    0.194    8.859
  334.750  105.187  179.979    0.375    0.216    9.204
  335.000  105.625  179.979    0.379    0.193    9.810
  335.250  103.750  179.979    0.379    0.194    9.624
  335.500  102.500  182.054    0.389    0.185    9.624
  335.750  103.750  177.905    0.391    0.179    9.624
  336.000  105.625  181.017    0.399    0.179    9.624
  336.250  106.875  184.129    0.398    0.188    9.624
  336.500  106.250  184.129    0.398    0.190    9.624
  336.750  103.125  182.054    0.390    0.185   10.593
  337.000  101.250  181.017    0.379    0.185    9.624
  337.250  101.250  179.979    0.373    0.193   10.000
  337.500  103.320  181.017    0.371    0.204   10.524
  337.750  100.830  178.942    0.361    0.197   10.727
  338.000   92.739  174.793    0.331    0.175   11.145
  338.250   84.647  173.755    0.326    0.154   11.580
  338.500   83.402  173.755    0.331    0.173   10.727
  338.750   92.739  174.793    0.342    0.193   10.524
  339.000  105.809  174.793    0.371    0.193    9.748
  339.250  107.676  175.830    0.376    0.198    9.563
  339.500  103.942  175.830    0.383    0.195    9.748
  339.750   98.963  174.793    0.387    0.200   10.128
  340.000   97.500  174.793    0.388    0.208   10.593
  340.250   94.375  175.830    0.396    0.217   11.007
  340.500   93.750  175.830    0.403    0.218   12.115
  340.750   93.750  176.867    0.391    0.212   12.115
  341.000   95.625  176.867    0.387    0.209   12.350
  341.250   97.500  176.867    0.388    0.214   12.589
  341.500   94.375  176.867    0.389    0.238   13.756
  341.750   90.000  176.867    0.391    0.248   13.756
  342.000   91.250  176.867    0.395    0.240   13.756
  342.250   91.875  176.867    0.398    0.238   13.756
  342.500   91.875  175.830    0.398    0.240   13.496
  342.750   91.875  175.830    0.398    0.229   12.743
  343.000   91.875  175.830    0.398    0.213   12.032
  343.250   88.750  174.793    0.395    0.214   11.145
  343.500   89.375  173.755    0.399    0.219   10.727
  343.750   92.116  176.867    0.403    0.212    9.748
  344.000   95.228  176.867    0.403    0.209    9.382
  344.250   94.606  177.905    0.388    0.212    9.748
  344.500   91.494  177.905    0.386    0.210   10.128
  344.750   87.759  177.905    0.357    0.192   10.324
  345.000   81.250  176.867    0.323    0.123   10.798
  345.250   75.625  176.867    0.293    0.091   10.194
  345.500   78.125  178.942    0.316    0.150   10.391
  345.750   88.125  181.017    0.362    0.203    9.382
