~VERSION INFORMATION
 VERS.                 2.0:   CWLS LOG ASCII STANDARD -VERSION 2.0
 WRAP.                  NO:   ONE LINE PER DEPTH STEP
~WELL INFORMATION BLOCK
#MNEM.UNIT           DATA                    DESCRIPTION OF MNEMONIC
#---------    -------------------            -------------------------------
# Generated from Intellog Unique Number	CW_76_78/WELL/2562
WELL.         BARNWELL ET AL MCMULLEN        : Well_name    - WELL
LOC .         00/01-10-078-26W4/0            : Location     - LOCATION
UWI .         00/01-10-078-26W4/0            : Uwi          - UNIQUE WELL ID
ENTR.         MAX                            : Entered      - ENTERED BY
SRVC.         COMPUTALOG                     : Scn          - SERVICE COMPANY
STRT.M        320                            : top_depth    - START DEPTH
STOP.M        560                            : bot_depth    - STOP DEPTH
STEP.M        0.25                           : increment    - STEP LENGTH
 NULL. -999.2500:NULL Value
~CURVE INFORMATION BLOCK
#MNEM UNIT       ERCB CURVE CODE    CURVE DESCRIPTION
#-----------   ------------------   ----------------------------------
DEPT.M        00 001 00 00         : DEPTH        - DEPTH
GR  .API      00 310 00 00         : GR           - GAMMA RAY
ILD .OHMM     00 120 00 00         : RESD         - DEEP RESISTIVITY (DIL)
NPHI.V/V      00 330 00 00         : PHIN         - NEUTRON POROSITY (SANDSTONE)
DPHI.V/V      00 890 00 00         : PHID         - DENSITY POROSITY (SANDSTONE)
CALI.MM       00 280 01 00         : CAL          - CALIPER
~PARAMETER INFORMATION
#MNEM.UNIT           DATA             DESCRIPTION OF MNEMONIC
#---------         -----------     ------------------------------
GL  .M        610.3                : gl           - GROUND LEVEL ELEVATION
EREF.M        613.8                : kb           - ELEVATION OF DEPTH REFERENCE
DATM.M        610.3                : datum        - DATUM ELEVATION
TDD .M        561                  : tdd          - TOTAL DEPTH DRILLER
RUN .         ONE                  : Run          - RUN NUMBER
ENG .         BILL                 : Engineer     - RECORDING ENGINEER
WIT .         JIM                  : Witness      - WITNESSED BY
MUD .         GEL                  : Mud_type     - MUD TYPE
MATR.         SANDSTONE            : Logunit      - NEUTRON MATRIX
TMAX.C        26                   : BHT          - MAXIMUM RECORDED TEMPERATURE
BHTD.M        561                  : BHTDEP       - MAXIMUM RECORDED TEMPERATURE
RMT .C        21                   : MDTP         - TEMPERATURE OF MUD
MUDD.KG/M     1160                 : MWT          - MUD DENSITY
NEUT.         1                    : NEUTRON      - NEUTRON TYPE
RESI.         0                    : RESIST       - RESISTIVITY TYPE
RM  .OHMM     3.7                  : RM           - RESISTIVITY OF MUD
RMC .OHMM     2.4                  : RMC          - RESISTIVITY OF MUD CAKE
RMF .OHMM     3.5                  : RMF          - RESISTIVITY OF MUD FILTRATE
SUFT.C        -10                  : SUFT         - SURFACE TEMPERATURE
~A  DEPTH       GR     RESD     PHIN     PHID      CAL
# ...
  356.500  105.363    5.891    0.382    0.223  161.075
  356.750  115.707    5.172    0.403    0.214  160.008
  357.000  125.131    4.981    0.448    0.217  158.916
  357.250  114.102    5.024    0.434    0.272  157.850
  357.500   78.016    5.929    0.372    0.296  156.758
  357.750   63.313    5.980    0.334    0.344  155.158
  358.000   69.688    5.348    0.323    0.343  154.584
  358.250   80.032    4.088    0.334    0.297  154.527
  358.500   89.460    3.590    0.391    0.250  154.462
  358.750  104.085    3.301    0.423    0.223  155.415
  359.000  119.321    3.208    0.436    0.214  156.368
  359.250  125.695    3.265    0.446    0.223  155.276
  359.500  129.015    3.387    0.437    0.213  153.684
  359.750  120.420    3.959    0.416    0.196  152.092
  360.000  115.189    4.260    0.399    0.176  152.003
  360.250  115.756    4.757    0.415    0.178  152.471
  360.500   97.999    5.879    0.392    0.303  152.398
  360.750   84.213    6.564    0.360    0.328  152.324
  361.000   75.011    7.063    0.354    0.348  152.259
  361.250   74.362    7.529    0.359    0.349  151.685
  361.500   76.451    7.665    0.381    0.335  151.620
  361.750   81.918    7.589    0.397    0.317  152.056
  362.000   88.288    7.514    0.397    0.304  155.045
  362.250   90.386    7.439    0.391    0.289  159.052
  362.500   90.352    7.503    0.395    0.277  161.022
  362.750   87.254    7.638    0.402    0.272  162.484
  363.000   89.353    7.633    0.401    0.274  162.411
  363.250  101.840    7.627    0.386    0.268  162.362
  363.500  107.909    7.552    0.379    0.262  162.297
  363.750  108.171    7.341    0.384    0.259  162.717
  364.000  110.274    7.004    0.395    0.255  163.160
  364.250  119.092    6.560    0.402    0.249  163.112
  364.500  121.801    5.977    0.406    0.245  163.030
  364.750  125.427    5.396    0.411    0.244  162.973
  365.000  129.358    5.101    0.413    0.243  162.916
  365.250  127.486    5.050    0.416    0.233  162.334
  365.500  114.310    5.141    0.434    0.220  161.744
  365.750   92.889    5.431    0.432    0.260  161.687
  366.000   64.743    5.898    0.408    0.323  161.630
  366.250   64.399    6.707    0.392    0.327  161.564
  366.500   74.127    7.216    0.398    0.314  160.974
  366.750   73.478    7.211    0.399    0.309  161.418
  367.000   68.862    6.818    0.389    0.317  161.353
  367.250   68.819    5.931    0.386    0.315  161.288
  367.500   77.335    5.355    0.393    0.281  161.223
  367.750   81.567    4.615    0.387    0.256  161.166
  368.000   82.449    3.978    0.376    0.221  160.066
  368.250   86.380    3.658    0.403    0.207  158.991
  368.500   95.808    3.491    0.451    0.256  156.890
  368.750   97.602    3.687    0.468    0.271  155.290
  369.000   93.898    4.515    0.462    0.290  156.752
  369.250   83.160    5.088    0.389    0.276  159.741
  369.500   77.008    7.426    0.334    0.222  161.203
  369.750   65.980    7.843    0.277    0.173  161.129
  370.000   56.163    7.147    0.224    0.119  160.563
  370.250   56.429    5.412    0.315    0.197  160.498
  370.500   67.990    4.254    0.373    0.260  161.451
  370.750   75.582    3.374    0.398    0.270  163.414
  371.000   87.162    3.074    0.415    0.286  164.884
  371.250   82.532    3.074    0.403    0.299  163.793
  371.500   82.193    3.040    0.392    0.291  161.675
  371.750   95.596    3.154    0.453    0.275  162.636
  372.000  108.684    4.314    0.469    0.266  163.589
  372.250   99.794    5.332    0.441    0.262  163.532
  372.500   81.421    6.652    0.437    0.256  161.423
  372.750   75.274    8.690    0.415    0.254  159.831
  373.000   67.285    9.011    0.392    0.284  159.248
  373.250   66.940    7.986    0.370    0.296  159.248
  373.500   69.044    7.012    0.378    0.282  160.104
  373.750   76.024    6.691    0.388    0.269  160.071
  374.000   85.758    6.748    0.393    0.254  159.990
  374.250   88.472    6.806    0.427    0.238  159.933
  374.500   93.935    6.614    0.446    0.253  160.894
  374.750   95.413    6.370    0.449    0.261  162.356
  375.000   91.709    6.022    0.431    0.263  161.773
  375.250   92.286    5.854    0.432    0.258  161.191
  375.500   99.877    5.743    0.435    0.247  161.134
  375.750  103.507    5.633    0.438    0.246  161.061
  376.000  108.350    5.376    0.453    0.262  161.513
  376.250  112.286    5.129    0.480    0.268  161.940
  376.500  114.995    4.940    0.484    0.268  161.883
  376.750  113.124    4.845    0.473    0.260  161.309
  377.000  109.115    4.842    0.459    0.253  161.745
  377.250  108.455    4.883    0.441    0.255  162.706
  377.500  110.864    4.883    0.444    0.256  163.651
  377.750  112.958    4.877    0.447    0.251  164.604
  378.000  109.870    4.877    0.421    0.243  165.048
  378.250  107.378    4.914    0.404    0.239  164.982
  378.500  109.181    4.958    0.406    0.223  163.390
  378.750  113.107    4.909    0.409    0.211  163.317
  379.000  114.294    4.858    0.404    0.199  164.262
  379.250  113.029    4.812    0.404    0.199  164.722
  379.500  112.684    4.677    0.405    0.198  165.166
  379.750  113.857    4.504    0.403    0.193  165.076
  380.000  112.601    4.337    0.404    0.184  164.510
  380.250  112.562    4.295    0.402    0.183  164.954
  380.500  115.277    4.453    0.406    0.186  166.424
  380.750  118.592    4.704    0.410    0.190  166.359
  381.000  118.553    5.061    0.405    0.193  166.286
  381.250  114.849    5.200    0.424    0.200  167.223
  381.500  108.702    5.392    0.449    0.209  167.683
  381.750  102.245    5.695    0.461    0.219  167.601
  382.000  101.896    5.906    0.458    0.231  166.518
  382.250  101.852    6.179    0.436    0.242  167.980
  382.500   98.763    6.234    0.428    0.246  168.949
  382.750   97.498    6.286    0.434    0.244  168.367
  383.000   96.848    6.282    0.440    0.243  167.284
  383.250   98.035    6.220    0.437    0.247  167.720
  383.500   99.824    6.159    0.428    0.248  167.663
  383.750  101.612    6.097    0.429    0.245  167.597
  384.000  104.332    6.037    0.436    0.238  168.033
  384.250  107.647    5.977    0.438    0.233  169.996
  384.500  104.859    5.864    0.424    0.236  169.430
  384.750  101.155    5.753    0.410    0.234  167.838
  385.000   98.979    5.643    0.407    0.239  166.755
  385.250   98.634    5.536    0.434    0.249  166.181
  385.500   98.896    5.481    0.448    0.259  167.125
  385.750  100.989    5.478    0.445    0.264  168.070
  386.000  102.783    5.732    0.431    0.263  168.514
  386.250  103.970    6.055    0.422    0.250  167.940
  386.500  104.542    6.337    0.428    0.241  167.875
  386.750   96.252    6.694    0.444    0.233  167.801
  387.000   91.622    7.270    0.447    0.239  167.753
  387.250   91.283    7.968    0.433    0.240  167.679
  387.500   89.712    8.979    0.397    0.216  167.606
  387.750   87.845    9.932    0.372    0.198  167.040
  388.000   88.412   10.110    0.338    0.171  165.949
  388.250   88.378    9.470    0.287    0.144  164.874
  388.500   87.718    8.088    0.304    0.154  162.757
  388.750   88.600    7.036    0.370    0.185  161.173
  389.000   92.837    6.352    0.437    0.259  160.081
  389.250   94.630    6.117    0.441    0.266  159.499
  389.500   95.197    6.226    0.440    0.272  159.951
  389.750   95.158    6.338    0.427    0.281  162.423
  390.000   90.848    6.334    0.415    0.294  161.849
  390.250   90.499    6.214    0.399    0.280  159.230
  390.500   95.351    6.039    0.405    0.269  157.646
  390.750   98.671    5.924    0.401    0.268  158.599
  391.000   94.958    5.975    0.393    0.262  162.614
  391.250   93.387    6.196    0.394    0.253  165.603
  391.500   92.126    6.485    0.410    0.259  165.021
  391.750   91.180    7.108    0.429    0.269  164.956
  392.000   91.132    7.790    0.414    0.276  164.382
  392.250   92.319    8.381    0.398    0.284  164.308
  392.500   90.142    8.854    0.392    0.302  163.743
  392.750   84.911    9.703    0.399    0.313  164.679
