~VERSION INFORMATION
 VERS.                 2.0:   CWLS LOG ASCII STANDARD -VERSION 2.0
 WRAP.                  NO:   ONE LINE PER DEPTH STEP
~WELL INFORMATION BLOCK
#MNEM.UNIT           DATA                    DESCRIPTION OF MNEMONIC
#---------    -------------------            -------------------------------
# Generated from Intellog Unique Number	CX_WELLS/WELL/2743
WELL.         THORNBURY                      : Well_name    - WELL
LOC .         00/01-09-080-13W4/0            : Location     - LOCATION
UWI .         00/01-09-080-13W4/0            : Uwi          - UNIQUE WELL ID
ENTR.         T                              : Entered      - ENTERED BY
SRVC.         SCHLUMBERGER                   : Scn          - SERVICE COMPANY
STRT.M        270                            : top_depth    - START DEPTH
STOP.M        500                            : bot_depth    - STOP DEPTH
STEP.M        0.25                           : increment    - STEP LENGTH
 NULL. -999.2500:NULL Value
~CURVE INFORMATION BLOCK
#MNEM UNIT       ERCB CURVE CODE    CURVE DESCRIPTION
#-----------   ------------------   ----------------------------------
DEPT.M        00 001 00 00         : DEPTH        - DEPTH
GR  .API      00 310 00 00         : GR           - GAMMA RAY
NPHI.V/V      00 330 00 00         : PHIN         - NEUTRON POROSITY (SANDSTONE)
DPHI.V/V      00 890 00 00         : PHID         - DENSITY POROSITY (SANDSTONE)
ILD .OHMM     00 120 00 00         : RESD         - DEEP RESISTIVITY (DLL)
~PARAMETER INFORMATION
#MNEM.UNIT           DATA             DESCRIPTION OF MNEMONIC
#---------         -----------     ------------------------------
GL  .M        681.9                : gl           - GROUND LEVEL ELEVATION
EREF.M        685.9                : kb           - ELEVATION OF DEPTH REFERENCE
DATM.M        685.9                : datum        - DATUM ELEVATION
TDD .M        504                  : tdd          - TOTAL DEPTH DRILLER
RUN .         ONE                  : Run          - RUN NUMBER
ENG .         BILL                 : Engineer     - RECORDING ENGINEER
WIT .         JIM                  : Witness      - WITNESSED BY
MUD .         GEL                  : Mud_type     - MUD TYPE
MATR.         SANDSTONE            : Logunit      - NEUTRON MATRIX
TMAX.C        30                   : BHT          - MAXIMUM RECORDED TEMPERATURE
BHTD.M        504                  : BHTDEP       - MAXIMUM RECORDED TEMPERATURE
MATR.         1                    : LOGUNIT      - NEUTRON MATRIX
RMT .C        20                   : MDTP         - TEMPERATURE OF MUD
NEUT.         1                    : NEUTRON      - NEUTRON TYPE
RESI.         3.5                  : RESIST       - RESISTIVITY TYPE
RMC .OHMM     2.3                  : RMC          - RESISTIVITY OF MUD CAKE
RMF .OHMM     4.5                  : RMF          - RESISTIVITY OF MUD FILTRATE
SUFT.C        4                    : SUFT         - SURFACE TEMPERATURE
~A  DEPTH       GR     PHIN     PHID     RESD
# ...
  400.500  100.045    0.428    0.225    7.011
  400.750   95.273    0.422    0.221    6.894
  401.000   82.687    0.416    0.214    6.784
  401.250   69.499    0.382    0.155    6.795
  401.500   63.522    0.253    0.095    6.809
  401.750   57.561    0.259    0.136    6.957
  402.000   67.275    0.305    0.156    7.514
  402.250   72.156    0.409    0.178    8.928
  402.500   75.229    0.411    0.210    9.472
  402.750   72.882    0.415    0.249    9.493
  403.000   65.716    0.417    0.251    9.161
  403.250   69.994    0.420    0.247    8.676
  403.500   74.921    0.419    0.271    8.063
  403.750   74.952    0.427    0.265    7.781
  404.000   79.832    0.440    0.258    7.505
  404.250   87.724    0.423    0.254    7.250
  404.500   90.226    0.423    0.248    7.122
  404.750   91.493    0.423    0.246    7.138
  405.000   94.566    0.423    0.245    7.157
  405.250   94.026    0.425    0.250    7.176
  405.500   89.856    0.435    0.256    7.183
  405.750   85.718    0.444    0.264    7.344
  406.000   85.193    0.444    0.271    7.363
  406.250   84.019    0.442    0.274    7.511
  406.500   80.483    0.441    0.280    7.532
  406.750   76.931    0.452    0.282    7.544
  407.000   76.391    0.453    0.264    7.564
  407.250   78.244    0.445    0.251    7.576
  407.500   81.317    0.438    0.258    7.604
  407.750   81.982    0.422    0.274    7.474
  408.000   73.612    0.407    0.258    7.486
  408.250   64.052    0.388    0.241    7.358
  408.500   67.743    0.410    0.257    7.374
  408.750   68.979    0.430    0.276    7.686
  409.000   72.068    0.448    0.276    7.994
  409.250   75.744    0.454    0.271    8.159
  409.500   77.628    0.472    0.270    8.822
  409.750   77.088    0.470    0.264    9.180
  410.000   74.138    0.459    0.241    9.028
  410.250   69.969    0.415    0.227    8.554
  410.500   64.007    0.369    0.197    8.404
  410.750   56.842    0.278    0.078    8.110
  411.000   51.468    0.231    0.041    7.826
  411.250   57.584    0.245    0.067    7.843
  411.500   61.244    0.322    0.116    7.864
  411.750   66.124    0.379    0.154    8.192
  412.000   67.422    0.454    0.181    8.362
  412.250   68.070    0.471    0.203    8.706
  412.500   69.939    0.468    0.251    8.881
  412.750   74.217    0.456    0.268    9.247
  413.000   76.102    0.442    0.247    9.443
  413.250   76.766    0.435    0.253    9.113
  413.500   78.635    0.437    0.265    8.469
  413.750   82.326    0.437    0.272    7.871
  414.000   82.372    0.434    0.276    7.592
  414.250   78.820    0.435    0.274    7.330
  414.500   75.886    0.433    0.271    7.209
  414.750   75.346    0.432    0.265    7.224
  415.000   75.393    0.429    0.261    7.104
  415.250   76.659    0.429    0.254    6.987
  415.500   78.528    0.429    0.256    6.871
  415.750   77.385    0.427    0.258    6.885
  416.000   75.640    0.426    0.258    6.775
  416.250   76.305    0.430    0.258    6.786
  416.500   78.204    0.432    0.259    6.808
  416.750   77.680    0.434    0.259    6.815
  417.000   77.124    0.440    0.259    6.829
  417.250   77.170    0.442    0.259    6.716
  417.500   76.630    0.445    0.257    6.481
  417.750   76.692    0.444    0.252    6.023
  418.000   77.989    0.444    0.248    5.707
  418.250   78.623    0.443    0.237    5.508
  418.500   78.685    0.437    0.226    5.517
  418.750   76.940    0.421    0.213    5.850
  419.000   73.403    0.392    0.203    6.690
  419.250   71.643    0.369    0.186    7.800
  419.500   68.107    0.343    0.161    9.089
  419.750   65.157    0.327    0.109   10.399
  420.000   62.810    0.321    0.057   10.416
  420.250   60.463    0.326    0.084    9.680
  420.500   64.138    0.335    0.130    8.828
  420.750   72.030    0.375    0.159    8.364
  421.000   88.972    0.434    0.189    8.072
  421.250   89.636    0.443    0.202    7.794
  421.500   89.713    0.447    0.199    7.657
  421.750   93.389    0.458    0.197    7.681
  422.000   97.667    0.464    0.192    7.694
  422.250   96.540    0.442    0.180    7.714
  422.500   94.177    0.427    0.175    7.731
  422.750   90.039    0.428    0.177    7.895
  423.000   89.498    0.435    0.180    8.058
  423.250   91.954    0.438    0.188    8.394
  423.500   90.240    0.427    0.190    8.408
  423.750   87.275    0.413    0.187    8.586
  424.000   84.912    0.413    0.186    8.604
  424.250   88.001    0.411    0.186    8.466
  424.500   92.882    0.405    0.191    8.475
  424.750   92.326    0.399    0.192    8.188
  425.000   92.403    0.394    0.184    8.052
  425.250   92.465    0.401    0.176    7.914
  425.500   93.129    0.415    0.165    7.787
  425.750   93.191    0.420    0.159    7.511
  426.000   93.856    0.413    0.163    7.113
  426.250   94.535    0.398    0.171    6.610
  426.500   98.813    0.397    0.177    6.029
  426.750  102.504    0.398    0.182    5.498
  427.000  101.346    0.396    0.186    4.923
  427.250  104.435    0.392    0.189    4.573
  427.500  103.879    0.393    0.193    4.168
  427.750  100.930    0.394    0.223    3.801
  428.000   99.200    0.422    0.230    3.402
  428.250  101.656    0.457    0.238    3.046
  428.500  100.529    0.485    0.247    2.778
  428.750   98.182    0.513    0.254    2.629
  429.000   96.452    0.572    0.259    2.586
  429.250   94.676    0.589    0.260    2.903
  429.500   91.140    0.576    0.260    3.322
  429.750   89.395    0.561    0.255    3.588
  430.000   90.059    0.565    0.248    4.026
  430.250   88.917    0.527    0.241    4.691
  430.500   87.172    0.446    0.232    5.577
  430.750   86.632    0.404    0.217    6.258
  431.000   86.693    0.400    0.208    7.026
  431.250   88.562    0.399    0.201    7.304
  431.500   86.833    0.382    0.196    7.609
  431.750   83.281    0.383    0.189    7.335
  432.000   79.729    0.374    0.152    6.445
  432.250   76.177    0.354    0.132    6.101
  432.500   75.637    0.346    0.164    6.003
  432.750   80.517    0.351    0.175    5.900
  433.000   88.996    0.397    0.195    5.808
  433.250   98.108    0.403    0.198    5.818
  433.500  103.590    0.418    0.192    5.614
  433.750   95.220    0.407    0.178    5.317
  434.000   88.055    0.398    0.162    4.852
  434.250   85.723    0.386    0.186    4.509
  434.500   91.190    0.396    0.199    4.349
  434.750   97.877    0.412    0.215    4.121
  435.000  105.198    0.422    0.213    3.977
  435.250  108.271    0.426    0.206    4.061
  435.500  109.538    0.425    0.195    4.145
  435.750  108.982    0.431    0.188    4.318
  436.000  107.839    0.437    0.176    4.491
  436.250  106.727    0.440    0.178    4.586
  436.500  106.758    0.440    0.182    4.684
  436.750  108.056    0.440    0.189    4.871
  437.000  108.133    0.439    0.185    5.075
  437.250  107.562    0.439    0.181    5.385
  437.500  107.037    0.437    0.173    5.600
  437.750  108.304    0.434    0.166    5.716
  438.000  110.775    0.429    0.158    6.062
  438.250  112.628    0.426    0.185    6.311
  438.500  115.733    0.432    0.198    6.693
  438.750  116.999    0.440    0.190    7.237
  439.000  118.250    0.440    0.183    8.121
  439.250  117.710    0.430    0.174    8.938
  439.500  112.351    0.408    0.172   10.030
  439.750  106.992    0.393    0.174   12.381
  440.000   99.209    0.381    0.202   13.372
  440.250   84.214    0.362    0.245   13.915
  440.500   80.060    0.369    0.258   14.757
  440.750   83.133    0.383    0.262   15.365
  441.000   81.404    0.377    0.258   15.397
  441.250   79.643    0.368    0.235   15.142
  441.500   76.107    0.363    0.217   14.613
  441.750   74.964    0.354    0.191   14.110
  442.000   76.833    0.348    0.191   13.624
  442.250   81.111    0.353    0.192   13.646
  442.500   87.212    0.361    0.199   13.419
  442.750   89.667    0.376    0.210   13.448
  443.000   90.949    0.389    0.221   13.477
  443.250   91.598    0.391    0.222   13.763
  443.500   93.482    0.391    0.211   14.055
  443.750  101.374    0.392    0.199   14.618
