~VERSION INFORMATION
 VERS.                 2.0:   CWLS LOG ASCII STANDARD -VERSION 2.0
 WRAP.                  NO:   ONE LINE PER DEPTH STEP
~WELL INFORMATION BLOCK
#MNEM.UNIT           DATA                    DESCRIPTION OF MNEMONIC
#---------    -------------------            -------------------------------
# Generated from Intellog Unique Number	CW_76_78/WELL/2562
WELL.         BARNWELL ET AL MCMULLEN        : Well_name    - WELL
LOC .         00/01-10-078-26W4/0            : Location     - LOCATION
UWI .         00/01-10-078-26W4/0            : Uwi          - UNIQUE WELL ID
ENTR.         MAX                            : Entered      - ENTERED BY
SRVC.         COMPUTALOG                     : Scn          - SERVICE COMPANY
STRT.M        320                            : top_depth    - START DEPTH
STOP.M        560                            : bot_depth    - STOP DEPTH
STEP.M        0.25                           : increment    - STEP LENGTH
 NULL. -999.2500:NULL Value
~CURVE INFORMATION BLOCK
#MNEM UNIT       ERCB CURVE CODE    CURVE DESCRIPTION
#-----------   ------------------   ----------------------------------
DEPT.M        00 001 00 00         : DEPTH        - DEPTH
GR  .API      00 310 00 00         : GR           - GAMMA RAY
ILD .OHMM     00 120 00 00         : RESD         - DEEP RESISTIVITY (DIL)
NPHI.V/V      00 330 00 00         : PHIN         - NEUTRON POROSITY (SANDSTONE)
DPHI.V/V      00 890 00 00         : PHID         - DENSITY POROSITY (SANDSTONE)
CALI.MM       00 280 01 00         : CAL          - CALIPER
~PARAMETER INFORMATION
#MNEM.UNIT           DATA             DESCRIPTION OF MNEMONIC
#---------         -----------     ------------------------------
GL  .M        610.3                : gl           - GROUND LEVEL ELEVATION
EREF.M        613.8                : kb           - ELEVATION OF DEPTH REFERENCE
DATM.M        610.3                : datum        - DATUM ELEVATION
TDD .M        561                  : tdd          - TOTAL DEPTH DRILLER
RUN .         ONE                  : Run          - RUN NUMBER
ENG .         BILL                 : Engineer     - RECORDING ENGINEER
WIT .         JIM                  : Witness      - WITNESSED BY
MUD .         GEL                  : Mud_type     - MUD TYPE
MATR.         SANDSTONE            : Logunit      - NEUTRON MATRIX
TMAX.C        26                   : BHT          - MAXIMUM RECORDED TEMPERATURE
BHTD.M        561                  : BHTDEP       - MAXIMUM RECORDED TEMPERATURE
RMT .C        21                   : MDTP         - TEMPERATURE OF MUD
MUDD.KG/M     1160                 : MWT          - MUD DENSITY
NEUT.         1                    : NEUTRON      - NEUTRON TYPE
RESI.         0                    : RESIST       - RESISTIVITY TYPE
RM  .OHMM     3.7                  : RM           - RESISTIVITY OF MUD
RMC .OHMM     2.4                  : RMC          - RESISTIVITY OF MUD CAKE
RMF .OHMM     3.5                  : RMF          - RESISTIVITY OF MUD FILTRATE
SUFT.C        -10                  : SUFT         - SURFACE TEMPERATURE
~A  DEPTH       GR     RESD     PHIN     PHID      CAL
# ...
  393.000   80.592   10.062    0.412    0.322  169.187
  393.250   79.026   10.147    0.396    0.324  167.603
  393.500   76.844   10.139    0.395    0.324  165.510
  393.750   76.199   10.134    0.413    0.322  160.848
  394.000   76.756   10.134    0.396    0.325  157.228
  394.250   74.885   10.117    0.383    0.331  154.609
  394.500   73.023    9.927    0.384    0.331  154.609
  394.750   69.004    9.921    0.401    0.329  153.946
  395.000   65.606    9.822    0.409    0.324  154.414
  395.250   62.517    9.907    0.426    0.326  155.876
  395.500   60.030   10.177    0.431    0.329  157.847
  395.750   60.893   10.553    0.432    0.330  159.300
  396.000   60.563   10.943    0.419    0.331  159.235
  396.250   59.608   11.244    0.401    0.327  158.669
  396.500   60.175   11.445    0.359    0.305  157.069
  396.750   61.056   11.438    0.331    0.277  156.495
  397.000   59.786   11.429    0.344    0.252  157.440
  397.250   61.890   11.210    0.392    0.279  156.348
  397.500   67.348   10.797    0.397    0.314  156.300
  397.750   66.998   10.021    0.376    0.337  155.726
  398.000   64.216    9.651    0.381    0.339  155.660
  398.250   61.733    9.291    0.395    0.337  156.080
  398.500   62.911    9.117    0.402    0.337  156.532
  398.750   68.069    9.026    0.406    0.339  155.950
  399.000   73.527    8.938    0.402    0.341  155.392
  399.250   71.956    8.932    0.402    0.344  154.818
  399.500   70.084    8.921    0.404    0.345  153.217
  399.750   70.351    8.836    0.402    0.344  152.134
  400.000   72.139    8.750    0.401    0.339  151.051
  400.250   71.489    8.584    0.403    0.334  150.978
  400.500   72.366    8.420    0.414    0.330  149.903
  400.750   74.165    8.337    0.414    0.327  149.822
  401.000   75.643    8.254    0.391    0.325  149.765
  401.250   74.692    8.254    0.382    0.323  150.208
  401.500   73.427    8.242    0.380    0.321  150.652
  401.750   75.831    8.236    0.379    0.315  151.096
  402.000   78.540    8.462    0.381    0.302  151.015
  402.250   81.865    8.939    0.400    0.289  150.950
  402.500   87.018    9.708    0.411    0.282  152.403
  402.750  100.116   10.737    0.410    0.265  154.374
  403.000  103.131   11.661    0.396    0.239  154.826
  403.250   68.878   12.664    0.354    0.215  154.769
  403.500   58.145   13.376    0.320    0.192  154.696
  403.750   55.663   13.002    0.301    0.159  154.623
  404.000   58.372   12.067    0.329    0.157  154.566
  404.250   69.938   10.893    0.406    0.217  154.484
  404.500   80.893    9.834    0.412    0.250  154.428
  404.750   94.297    9.043    0.402    0.252  154.871
  405.000  114.113    9.035    0.374    0.226  155.323
  405.250   95.746    9.633    0.345    0.186  156.268
  405.500   74.008   11.472    0.353    0.162  158.748
  405.750   76.413   12.008    0.312    0.150  162.747
  406.000   73.935   14.170    0.254    0.099  163.700
  406.250   64.729   15.107    0.208    0.061  162.608
  406.500   56.445   15.809    0.182    0.026  161.542
  406.750   56.711   14.810    0.210    0.034  161.969
  407.000   68.277   12.765    0.320    0.067  162.421
  407.250   74.952    9.578    0.348    0.134  163.374
  407.500   81.636    8.647    0.375    0.166  163.818
  407.750   89.237    8.100    0.398    0.199  163.227
  408.000   93.163    8.100    0.405    0.205  161.652
  408.250   95.878    7.722    0.403    0.207  160.051
  408.500  101.030    7.369    0.388    0.207  158.960
  408.750  103.740    7.369    0.379    0.204  157.360
  409.000  103.381    7.291    0.385    0.203  156.802
  409.250  105.179    7.154    0.400    0.212  156.729
  409.500  105.450    7.147    0.404    0.220  156.664
  409.750  107.849    7.143    0.400    0.224  157.108
  410.000  106.283    7.072    0.391    0.222  157.042
  410.250  105.638    6.999    0.379    0.223  156.977
  410.500  105.594    6.932    0.378    0.223  156.912
  410.750  105.856    6.801    0.388    0.222  156.847
  411.000  107.950    6.796    0.397    0.224  156.782
  411.250  110.664    6.791    0.408    0.225  157.719
  411.500  112.768    6.787    0.408    0.222  159.180
  411.750  108.148    6.787    0.400    0.219  162.169
  412.000  106.877    6.775    0.388    0.215  166.176
  412.250  108.675    6.773    0.390    0.213  166.628
  412.500  109.242    6.769    0.407    0.222  166.046
  412.750  108.903    6.763    0.420    0.236  164.971
  413.000  107.938    6.884    0.435    0.230  166.425
  413.250  106.677    6.943    0.440    0.220  165.342
  413.500  105.106    6.939    0.425    0.227  165.276
  413.750  104.466    6.933    0.443    0.242  166.213
  414.000  105.033    6.929    0.442    0.243  167.174
  414.250  104.999    6.861    0.420    0.231  169.137
  414.500  103.733    6.855    0.390    0.222  169.589
  414.750  101.551    6.847    0.387    0.220  169.015
  415.000   99.374    6.846    0.397    0.220  168.941
  415.250  101.779    6.905    0.400    0.216  168.876
  415.500  102.045    7.160    0.396    0.213  168.310
  415.750  101.094    7.703    0.365    0.219  167.728
  416.000   99.218    8.444    0.351    0.225  167.146
  416.250   82.683    9.086    0.343    0.212  166.580
  416.500   79.585    9.775    0.340    0.197  166.006
  416.750   78.935    9.952    0.358    0.194  165.924
  417.000   81.339    9.761    0.381    0.209  165.876
  417.250   88.629    8.731    0.396    0.240  166.311
  417.500   95.925    7.955    0.448    0.275  167.765
  417.750   96.797    7.590    0.450    0.275  168.209
  418.000  100.423    7.310    0.415    0.263  169.679
  418.250  104.359    7.171    0.401    0.248  169.606
  418.500  106.457    7.166    0.392    0.236  166.996
  418.750  104.887    7.095    0.381    0.228  166.939
  419.000  104.242    6.960    0.403    0.227  167.875
  419.250  107.562    6.829    0.414    0.223  169.854
  419.500  113.015    6.887    0.396    0.215  170.807
  419.750  112.976    7.341    0.398    0.215  169.207
  420.000  108.661    8.826    0.417    0.225  168.124
  420.250   94.569    9.236    0.429    0.250  167.041
  420.500   87.811    9.937    0.433    0.261  166.466
  420.750   82.876   10.400    0.432    0.271  165.383
  421.000   83.147   10.685    0.428    0.270  163.274
  421.250   83.414   10.685    0.424    0.284  160.147
  421.500   83.370   10.869    0.415    0.288  159.056
  421.750   82.104   11.065    0.403    0.276  161.035
  422.000   81.154   11.578    0.418    0.280  160.978
  422.250   82.642   12.228    0.396    0.289  158.343
  422.500   82.297   12.799    0.344    0.264  156.767
  422.750   79.810   13.274    0.293    0.188  156.694
  423.000   78.850   13.388    0.366    0.162  157.655
  423.250   80.944   13.133    0.390    0.230  159.618
  423.500   83.358   12.765    0.397    0.268  159.553
  423.750   85.762   12.293    0.400    0.283  157.969
  424.000   86.018   11.515    0.415    0.294  157.386
  424.250   88.127   10.686    0.420    0.297  158.339
  424.500   88.999   10.197    0.414    0.301  162.839
  424.750   88.955    9.641    0.401    0.285  165.327
  425.000   88.010    8.785    0.400    0.260  165.779
  425.250   87.966    7.784    0.402    0.234  165.714
  425.500   95.561    7.027    0.396    0.228  165.649
  425.750  104.995    6.644    0.393    0.253  165.575
  426.000  111.054    6.458    0.402    0.255  165.001
  426.250  109.497    6.393    0.414    0.241  162.900
  426.500  105.173    6.568    0.413    0.217  159.264
  426.750  101.169    7.068    0.410    0.209  157.163
  427.000   96.849    7.746    0.396    0.215  157.106
  427.250   94.968    8.334    0.403    0.231  158.051
  427.500   94.939    8.885    0.413    0.244  155.441
  427.750   90.008    8.962    0.394    0.250  153.848
  428.000   89.058    8.551    0.403    0.251  153.266
  428.250   96.038    8.235    0.414    0.237  155.237
  428.500  100.280    8.235    0.416    0.229  158.234
  428.750   95.960    8.148    0.414    0.232  157.143
  429.000   89.202    9.097    0.399    0.265  157.578
  429.250   86.415    9.879    0.384    0.271  158.531
