~VERSION INFORMATION
 VERS.                 2.0:   CWLS LOG ASCII STANDARD -VERSION 2.0
 WRAP.                  NO:   ONE LINE PER DEPTH STEP
~WELL INFORMATION BLOCK
#MNEM.UNIT           DATA                    DESCRIPTION OF MNEMONIC
#---------    -------------------            -------------------------------
# Generated from Intellog Unique Number	CW_73_75/WELL/185
WELL.         BOWTEX MARTEN HILLS 01-04      : Well_name    - WELL
LOC .         00/01-04-075-23W4/0            : Location     - LOCATION
UWI .         00/01-04-075-23W4/0            : Uwi          - UNIQUE WELL ID
ENTR.         JAYE                           : Entered      - ENTERED BY
SRVC.         WESTERN ATLAS                  : Scn          - SERVICE COMPANY
DATE.         18 MAR 88                      : Date         - LOG DATE
STRT.M        435                            : top_depth    - START DEPTH
STOP.M        640                            : bot_depth    - STOP DEPTH
STEP.M        0.25                           : increment    - STEP LENGTH
 NULL. -999.2500:NULL Value
~CURVE INFORMATION BLOCK
#MNEM UNIT       ERCB CURVE CODE    CURVE DESCRIPTION
#-----------   ------------------   ----------------------------------
DEPT.M        00 001 00 00         : DEPTH        - DEPTH
ILD .OHMM     00 120 00 00         : RESD         - DEEP RESISTIVITY (DIL)
NPHI.V/V      00 330 00 00         : PHIN         - NEUTRON POROSITY (SANDSTONE)
DPHI.V/V      00 890 00 00         : PHID         - DENSITY POROSITY (SANDSTONE)
GR  .API      00 310 00 00         : GR           - GAMMA RAY
CALI.MM       00 280 01 00         : CAL          - CALIPER
~PARAMETER INFORMATION
#MNEM.UNIT           DATA             DESCRIPTION OF MNEMONIC
#---------         -----------     ------------------------------
GL  .M        715                  : gl           - GROUND LEVEL ELEVATION
EREF.M        718.3                : kb           - ELEVATION OF DEPTH REFERENCE
DATM.M        715                  : datum        - DATUM ELEVATION
TDD .M        640                  : tdd          - TOTAL DEPTH DRILLER
RUN .         ONE                  : Run          - RUN NUMBER
ENG .         NOWAKOWSKI           : Engineer     - RECORDING ENGINEER
WIT .         NUNEZ                : Witness      - WITNESSED BY
BASE.         RDD                  : Branch       - HOME BASE OF LOGGING UNIT
MUD .         GEL CHEM             : Mud_type     - MUD TYPE
MATR.         SANDSTONE            : Logunit      - NEUTRON MATRIX
TMAX.C        30                   : BHT          - MAXIMUM RECORDED TEMPERATURE
BHTD.M        640.2                : BHTDEP       - MAXIMUM RECORDED TEMPERATURE
RMT .C        19                   : MDTP         - TEMPERATURE OF MUD
MUDD.KG/M     1150                 : MWT          - MUD DENSITY
NEUT.         1                    : NEUTRON      - NEUTRON TYPE
RESI.         0                    : RESIST       - RESISTIVITY TYPE
RM  .OHMM     3.4                  : RM           - RESISTIVITY OF MUD
RMC .OHMM     4.65                 : RMC          - RESISTIVITY OF MUD CAKE
RMF .OHMM     4.78                 : RMF          - RESISTIVITY OF MUD FILTRATE
SUFT.C        0                    : SUFT         - SURFACE TEMPERATURE
~A  DEPTH     RESD     PHIN     PHID       GR      CAL
# ...
  471.500    5.092    0.473    0.258   85.698  204.374
  471.750    5.038    0.491    0.258   89.249  205.001
  472.000    5.021    0.499    0.259   89.911  205.523
  472.250    5.032    0.471    0.278   81.797  207.199
  472.500    5.130    0.476    0.309   76.252  210.552
  472.750    5.279    0.463    0.330   80.242  210.655
  473.000    5.381    0.437    0.322   87.675  210.128
  473.250    5.610    0.462    0.310   84.892  208.133
  473.500    5.872    0.482    0.297   68.874  207.711
  473.750    5.963    0.478    0.309   64.460  210.541
  474.000    5.921    0.482    0.315   76.284  210.538
  474.250    5.749    0.459    0.319   81.463  208.124
  474.500    5.570    0.434    0.324   82.881  207.178
  474.750    5.288    0.406    0.325   86.180  206.441
  475.000    5.047    0.380    0.316   88.913  205.600
  475.250    4.864    0.432    0.301   84.810  205.598
  475.500    4.687    0.477    0.284   87.541  206.644
  475.750    4.541    0.491    0.286   99.680  208.110
  476.000    4.451    0.435    0.294  108.498  208.947
  476.250    4.453    0.425    0.282  111.420  209.259
  476.500    4.608    0.423    0.269  113.525  209.257
  476.750    4.750    0.429    0.265  119.581  209.150
  477.000    4.824    0.444    0.262  115.103  208.728
  477.250    4.808    0.418    0.248  102.786  208.096
  477.500    4.801    0.377    0.243   95.049  207.569
  477.750    4.741    0.401    0.255   93.018  207.043
  478.000    4.611    0.461    0.250   91.421  210.292
  478.250    4.468    0.483    0.252   89.452  214.484
  478.500    4.314    0.479    0.256   93.568  213.328
  478.750    4.259    0.494    0.270   91.594  214.060
  479.000    4.245    0.506    0.270   89.249  216.994
  479.250    4.215    0.501    0.256   91.428  221.187
  479.500    4.123    0.484    0.239   94.339  222.863
  479.750    3.921    0.500    0.257   98.454  220.029
  480.000    3.532    0.543    0.288  106.139  227.158
  480.250    3.455    0.559    0.279  107.680  231.035
  480.500    3.650    0.495    0.254   99.001  222.644
  480.750    3.914    0.467    0.255   77.154  211.735
  481.000    4.197    0.445    0.276   76.629  204.706
  481.250    4.384    0.482    0.284   79.107  203.969
  481.500    4.494    0.502    0.270   80.962  206.694
  481.750    4.581    0.494    0.287   73.662  215.396
  482.000    4.661    0.472    0.310   67.868  209.521
  482.250    4.655    0.469    0.330   72.111  207.316
  482.500    4.553    0.476    0.314   82.176  207.943
  482.750    4.250    0.469    0.300   86.602  208.675
  483.000    3.907    0.512    0.288   90.405  209.302
  483.250    3.653    0.508    0.280   96.648  209.614
  483.500    3.442    0.478    0.273  100.446  209.717
  483.750    3.336    0.483    0.274  103.617  210.658
  484.000    3.324    0.516    0.279  109.863  214.431
  484.250    3.565    0.526    0.279  108.456  215.163
  484.500    3.925    0.501    0.267  104.230  208.554
  484.750    4.288    0.477    0.254  100.067  206.245
  485.000    4.677    0.451    0.232   97.533  205.403
  485.250    4.932    0.410    0.255   91.175  204.981
  485.500    5.046    0.433    0.310   85.439  205.399
  485.750    5.115    0.441    0.329  101.467  207.284
  486.000    5.013    0.445    0.296  112.351  211.057
  486.250    4.885    0.450    0.253  122.923  213.991
  486.500    4.824    0.463    0.234  125.216  216.820
  486.750    4.817    0.466    0.229  119.672  218.811
  487.000    4.765    0.504    0.234  116.261  217.760
  487.250    4.740    0.527    0.231  119.246  215.136
  487.500    4.778    0.521    0.225  121.977  213.770
  487.750    4.834    0.502    0.220  120.449  212.928
  488.000    4.836    0.484    0.226  116.160  212.716
  488.250    4.930    0.483    0.220  111.744  214.182
  488.500    5.007    0.506    0.234  104.254  218.795
  488.750    5.481    0.488    0.300   85.918  213.863
  489.000    6.468    0.484    0.316   79.246  206.100
  489.250    7.505    0.483    0.323   76.337  207.986
  489.500    8.404    0.466    0.329   74.615  208.927
  489.750    8.844    0.458    0.339   70.576  209.764
  490.000    8.816    0.485    0.343   68.356  210.076
  490.250    8.574    0.486    0.342   73.409  209.864
  490.500    7.664    0.466    0.329   79.593  209.443
  490.750    6.686    0.463    0.321   82.638  209.230
  491.000    5.988    0.490    0.320   78.600  209.018
  491.250    5.599    0.491    0.323   77.507  208.282
  491.500    5.236    0.496    0.317   84.506  207.965
  491.750    4.896    0.497    0.309   87.801  207.858
  492.000    4.587    0.484    0.300   89.971  207.436
  492.250    4.170    0.479    0.291   93.706  206.909
  492.500    3.777    0.501    0.284   98.760  210.368
  492.750    3.440    0.520    0.286  100.803  212.778
  493.000    3.321    0.539    0.296   99.211  219.907
  493.250    3.373    0.561    0.303   87.459  222.841
  493.500    3.906    0.516    0.316   65.362  211.827
  493.750    4.777    0.477    0.347   66.526  208.154
  494.000    6.054    0.498    0.352   68.505  206.683
  494.250    7.643    0.483    0.306   66.536  207.415
  494.500    9.243    0.416    0.215   68.392  209.825
  494.750   11.495    0.310    0.151   68.304  212.025
  495.000   13.289    0.254    0.127   66.144  210.450
  495.250   13.880    0.239    0.112   70.948  206.567
  495.500   10.983    0.254    0.129   80.392  204.153
  495.750    8.889    0.284    0.147   88.957  207.192
  496.000    7.207    0.316    0.171   95.075  208.763
  496.250    6.217    0.379    0.189  101.132  209.389
  496.500    5.373    0.411    0.205  100.101  210.016
  496.750    4.912    0.451    0.221   96.124  209.805
  497.000    4.671    0.463    0.236   96.162  207.390
  497.250    4.561    0.390    0.248   97.077  203.717
  497.500    4.623    0.386    0.239   97.552  201.198
  497.750    4.704    0.415    0.214   97.656  205.391
  498.000    4.741    0.434    0.160   96.434  209.688
  498.250    4.934    0.331    0.129   83.303  210.001
  498.500    5.311    0.273    0.066   67.161  209.893
  498.750    5.664    0.244    0.025   56.167  209.576
  499.000    6.235    0.184   -0.001   53.377  209.364
  499.250    6.674    0.188    0.001   79.813  209.467
  499.500    6.491    0.272    0.036   91.074  210.094
  499.750    6.116    0.385    0.105   99.011  210.301
  500.000    5.773    0.426    0.167  103.439  210.404
  500.250    5.490    0.417    0.197  103.914  211.660
  500.500    5.270    0.402    0.199  104.265  212.077
  500.750    4.974    0.426    0.199  107.376  212.599
  501.000    4.740    0.430    0.200  113.931  212.702
  501.250    4.654    0.447    0.202  117.231  212.804
  501.500    4.621    0.468    0.206  113.565  212.802
  501.750    4.571    0.442    0.206  111.348  213.009
  502.000    4.548    0.430    0.205  112.323  213.217
  502.250    4.541    0.511    0.210  110.545  213.529
  502.500    4.501    0.491    0.222  107.009  213.737
  502.750    4.419    0.479    0.216  103.591  214.259
  503.000    4.347    0.479    0.216   96.731  216.668
  503.250    4.341    0.466    0.224  102.101  217.610
  503.500    4.343    0.449    0.226  113.048  217.188
  503.750    4.353    0.466    0.241  113.585  214.669
  504.000    4.437    0.507    0.238  104.089  212.150
  504.250    4.652    0.503    0.223   91.774  211.204
  504.500    5.093    0.472    0.209   87.554  211.726
  504.750    5.441    0.443    0.207   92.412  211.723
  505.000    5.546    0.395    0.200   98.156  211.511
  505.250    5.508    0.338    0.181   99.821  211.089
  505.500    5.367    0.357    0.202   95.787  210.877
  505.750    5.230    0.432    0.245   97.574  210.980
  506.000    5.059    0.465    0.248  100.750  211.082
  506.250    4.884    0.476    0.242  103.795  210.975
  506.500    4.768    0.493    0.233  105.022  211.078
  506.750    4.526    0.502    0.231  100.669  211.390
  507.000    4.553    0.503    0.233  101.211  211.703
  507.250    4.748    0.500    0.232   99.801  211.595
  507.500    5.082    0.497    0.227   97.018  209.915
  507.750    5.648    0.498    0.216  100.880  205.928
