~VERSION INFORMATION
 VERS.                 2.0:   CWLS LOG ASCII STANDARD -VERSION 2.0
 WRAP.                  NO:   ONE LINE PER DEPTH STEP
~WELL INFORMATION BLOCK
#MNEM.UNIT           DATA                    DESCRIPTION OF MNEMONIC
#---------    -------------------            -------------------------------
# Generated from Intellog Unique Number	CX_WELLS/WELL/3716
WELL.         PETROREP HOUSE                 : Well_name    - WELL
LOC .         00/01-05-085-15W4/0            : Location     - LOCATION
UWI .         00/01-05-085-15W400            : Uwi          - UNIQUE WELL ID
ENTR.         T                              : Entered      - ENTERED BY
SRVC.         SCHLUMBERGER                   : Scn          - SERVICE COMPANY
STRT.M        100                            : top_depth    - START DEPTH
STOP.M        280                            : bot_depth    - STOP DEPTH
STEP.M        0.25                           : increment    - STEP LENGTH
 NULL. -999.2500:NULL Value
~CURVE INFORMATION BLOCK
#MNEM UNIT       ERCB CURVE CODE    CURVE DESCRIPTION
#-----------   ------------------   ----------------------------------
DEPT.M        00 001 00 00         : DEPTH        - DEPTH
GR  .API      00 310 00 00         : GR           - GAMMA RAY
NPHI.V/V      00 330 00 00         : PHIN         - NEUTRON POROSITY (SANDSTONE)
DPHI.V/V      00 890 00 00         : PHID         - DENSITY POROSITY (SANDSTONE)
ILD .OHMM     00 120 00 00         : RESD         - DEEP RESISTIVITY (DIL)
~PARAMETER INFORMATION
#MNEM.UNIT           DATA             DESCRIPTION OF MNEMONIC
#---------         -----------     ------------------------------
GL  .M        531.9                : gl           - GROUND LEVEL ELEVATION
EREF.M        535.5                : kb           - ELEVATION OF DEPTH REFERENCE
DATM.M        535.5                : datum        - DATUM ELEVATION
TDD .M        285                  : tdd          - TOTAL DEPTH DRILLER
RUN .         ONE                  : Run          - RUN NUMBER
ENG .         BILL                 : Engineer     - RECORDING ENGINEER
WIT .         JIM                  : Witness      - WITNESSED BY
MUD .         GEL                  : Mud_type     - MUD TYPE
MATR.         SANDSTONE            : Logunit      - NEUTRON MATRIX
TMAX.C        18                   : BHT          - MAXIMUM RECORDED TEMPERATURE
BHTD.M        285                  : BHTDEP       - MAXIMUM RECORDED TEMPERATURE
MATR.         1                    : LOGUNIT      - NEUTRON MATRIX
RMT .C        20                   : MDTP         - TEMPERATURE OF MUD
NEUT.         1                    : NEUTRON      - NEUTRON TYPE
RESI.         2.4                  : RESIST       - RESISTIVITY TYPE
RMC .OHMM     1.8                  : RMC          - RESISTIVITY OF MUD CAKE
RMF .OHMM     2.4                  : RMF          - RESISTIVITY OF MUD FILTRATE
SUFT.C        4                    : SUFT         - SURFACE TEMPERATURE
~A  DEPTH       GR     PHIN     PHID     RESD
# ...
  187.000   79.848    0.411    0.310   18.429
  187.250   79.882    0.408    0.302   17.771
  187.500   79.967    0.408    0.294   17.136
  187.750   77.513    0.407    0.288   16.531
  188.000   75.076    0.408    0.280   15.641
  188.250   76.430    0.412    0.283   15.365
  188.500   78.376    0.415    0.294   14.822
  188.750   79.696    0.418    0.304   14.850
  189.000   80.390    0.419    0.305   15.152
  189.250   78.579    0.401    0.296   15.459
  189.500   72.368    0.377    0.272   15.495
  189.750   71.810    0.367    0.247   15.233
  190.000   73.756    0.378    0.276   14.678
  190.250   75.076    0.379    0.274   13.893
  190.500   70.135    0.366    0.173   13.915
  190.750   63.314    0.338    0.117   14.208
  191.000   72.775    0.333    0.111   14.224
  191.250   82.878    0.360    0.165   14.246
  191.500   84.825    0.381    0.218   14.000
  191.750   86.145    0.389    0.255   13.758
  192.000   84.977    0.402    0.282   13.521
  192.250   83.183    0.410    0.287   13.536
  192.500   81.965    0.418    0.288   13.557
  192.750   80.154    0.422    0.292   13.073
  193.000   80.222    0.426    0.288   12.616
  193.250   80.289    0.428    0.285   12.630
  193.500   82.236    0.420    0.280   12.896
  193.750   85.485    0.415    0.279   13.163
  194.000   86.771    0.414    0.277   12.931
  194.250   88.718    0.418    0.273   12.469
  194.500   90.681    0.425    0.268   11.803
  194.750   92.627    0.449    0.263   11.381
  195.000   95.200    0.455    0.258   10.975
  195.250   97.146    0.452    0.254   10.380
  195.500   97.840    0.437    0.254    9.821
  195.750   98.534    0.427    0.253    8.782
  196.000   98.618    0.437    0.253    8.307
  196.250   98.060    0.442    0.251    7.286
  196.500   98.128    0.441    0.250    6.894
  196.750  100.700    0.443    0.247    6.647
  197.000  101.377    0.446    0.247    6.533
  197.250  103.323    0.450    0.247    6.673
  197.500  102.799    0.452    0.247    6.673
  197.750  101.614    0.456    0.247    7.223
  198.000   99.770    0.458    0.248    7.229
  198.250   96.080    0.457    0.248    7.104
  198.500   96.791    0.454    0.250    7.118
  198.750   98.771    0.450    0.252    7.129
  199.000  100.075    0.446    0.257    7.139
  199.250   99.499    0.445    0.262    7.287
  199.500   95.827    0.444    0.265    7.441
  199.750   92.764    0.441    0.267    7.592
  200.000   89.074    0.431    0.271    7.746
  200.250   86.011    0.430    0.277    8.375
  200.500   86.062    0.429    0.282    8.712
  200.750   86.130    0.429    0.279    9.232
  201.000   86.824    0.428    0.274   10.166
  201.250   88.161    0.424    0.271   10.777
  201.500   88.228    0.424    0.270   11.210
  201.750   87.027    0.426    0.270   11.447
  202.000   84.590    0.430    0.266   11.464
  202.250   80.901    0.407    0.251   11.477
  202.500   77.854    0.376    0.179   11.715
  202.750   82.288    0.362    0.207   11.957
  203.000   89.278    0.373    0.233   13.685
  203.250   92.460    0.388    0.253   13.968
  203.500   94.440    0.402    0.269   13.732
  203.750   96.369    0.410    0.275   13.485
  204.000   97.689    0.423    0.238   12.520
  204.250   94.609    0.420    0.208   11.628
  204.500   90.920    0.412    0.199   11.208
  204.750   96.014    0.412    0.224   10.605
  205.000   98.587    0.413    0.248   10.226
  205.250   98.654    0.413    0.252    9.865
  205.500   94.982    0.419    0.260    9.876
  205.750   92.528    0.426    0.268    9.895
  206.000   90.734    0.422    0.269    9.906
  206.250   90.802    0.410    0.266   10.115
  206.500   90.243    0.410    0.265   10.329
  206.750   89.668    0.411    0.268   10.542
  207.000   87.857    0.416    0.277   10.756
  207.250   86.673    0.415    0.271   11.198
  207.500   87.367    0.416    0.262   11.210
  207.750   91.191    0.418    0.250   11.228
  208.000   95.016    0.424    0.246   11.034
  208.250   99.484    0.427    0.245   10.644
  208.500  103.326    0.430    0.242   10.452
  208.750  105.255    0.438    0.240    9.893
  209.000  106.575    0.441    0.233    9.536
  209.250  106.017    0.439    0.232    8.854
  209.500  103.580    0.435    0.232    7.914
  209.750   99.908    0.431    0.228    7.074
  210.000   96.201    0.430    0.224    6.326
  210.250   99.400    0.432    0.219    6.333
  210.500  102.616    0.434    0.215    7.110
  210.750  103.936    0.436    0.215    8.286
  211.000  105.290    0.439    0.215    8.952
  211.250  105.323    0.445    0.215    8.966
  211.500  105.408    0.453    0.213    8.487
  211.750  105.459    0.464    0.211    7.731
  212.000  106.170    0.478    0.209    7.452
  212.250  106.881    0.472    0.207    6.922
  212.500  107.558    0.469    0.205    6.672
  212.750  108.252    0.462    0.205    6.438
  213.000  108.946    0.456    0.201    6.446
  213.250  109.013    0.443    0.200    6.335
  213.500  109.081    0.435    0.205    6.344
  213.750  108.523    0.447    0.224    6.354
  214.000  108.590    0.459    0.218    6.361
  214.250  108.675    0.450    0.198    6.371
  214.500  108.743    0.432    0.197    6.505
  214.750  108.811    0.410    0.193    6.518
  215.000  108.861    0.403    0.197    6.653
  215.250  107.051    0.403    0.203    6.660
  215.500  107.135    0.403    0.209    6.928
  215.750  107.829    0.401    0.209    7.632
  216.000  107.880    0.399    0.209    8.564
  216.250  108.608    0.402    0.211    9.426
  216.500  108.642    0.408    0.215   10.004
  216.750  108.743    0.413    0.216   10.015
  217.000  108.202    0.417    0.217   10.027
  217.250  108.253    0.417    0.217    9.676
  217.500  108.963    0.418    0.218    9.505
  217.750  110.267    0.410    0.223    9.338
  218.000  109.099    0.403    0.229    9.183
  218.250  107.254    0.400    0.235    9.191
  218.500  104.834    0.400    0.242    9.208
  218.750  101.771    0.402    0.246    9.222
  219.000   99.960    0.404    0.245    9.236
  219.250   98.150    0.408    0.247    9.247
  219.500   96.965    0.411    0.255    9.265
  219.750   97.016    0.415    0.263    9.279
  220.000   97.100    0.415    0.256    9.656
  220.250   97.811    0.410    0.248   10.044
  220.500   97.845    0.401    0.253   10.248
  220.750   97.930    0.401    0.256   10.665
  221.000   96.728    0.405    0.259   10.677
  221.250   94.934    0.410    0.261   10.701
  221.500   93.124    0.410    0.266   10.710
  221.750   90.687    0.409    0.265   10.525
  222.000   87.607    0.404    0.243   10.541
  222.250   83.917    0.394    0.201   10.363
  222.500   78.976    0.367    0.149   10.383
  222.750   70.903    0.342    0.141   10.593
  223.000   72.223    0.352    0.210   11.235
  223.250   80.431    0.367    0.241   12.370
  223.500   85.542    0.378    0.265   12.868
  223.750   86.845    0.392    0.277   12.646
  224.000   87.556    0.399    0.277   11.524
  224.250   88.267    0.405    0.275   11.104
  224.500   88.301    0.406    0.268   10.707
  224.750   88.403    0.402    0.264   10.329
  225.000   89.080    0.400    0.259   10.147
  225.250   90.400    0.397    0.253   10.147
  225.500   92.363    0.393    0.249   10.579
  225.750   93.683    0.395    0.235   10.393
  226.000   94.360    0.398    0.235   10.029
  226.250   95.071    0.400    0.234    9.852
  226.500   95.122    0.404    0.232    9.500
  226.750   95.189    0.413    0.232    9.515
  227.000   95.883    0.420    0.233    9.526
  227.250   96.577    0.411    0.234    9.723
  227.500   97.271    0.397    0.234   10.118
  227.750   97.356    0.395    0.234   10.323
  228.000   97.424    0.402    0.235   10.537
  228.250   96.865    0.411    0.235   10.355
  228.500   96.324    0.415    0.235   10.180
  228.750   95.765    0.417    0.235    9.816
  229.000   95.833    0.420    0.232    9.647
  229.250   95.901    0.429    0.225    9.131
  229.500   97.847    0.440    0.221    8.481
  229.750  100.420    0.442    0.224    8.178
  230.000  104.227    0.448    0.232    7.735
  230.250  108.712    0.452    0.242    7.316
