~VERSION INFORMATION
 VERS.                 2.0:   CWLS LOG ASCII STANDARD -VERSION 2.0
 WRAP.                  NO:   ONE LINE PER DEPTH STEP
~WELL INFORMATION BLOCK
#MNEM.UNIT           DATA                    DESCRIPTION OF MNEMONIC
#---------    -------------------            -------------------------------
# Generated from Intellog Unique Number	CN_94_101/WELL/3431
WELL.         PARMOUNT RES                   : Well_name    - WELL
LOC .         01-01-095-19W4                 : Location     - LOCATION
UWI .         00/01-01-095-19W4/0            : Uwi          - UNIQUE WELL ID
ENTR.         T                              : Entered      - ENTERED BY
SRVC.         SCHLUMBERGER                   : Scn          - SERVICE COMPANY
DATE.         07/22/92                       : Date         - LOG DATE
STRT.M        200                            : top_depth    - START DEPTH
STOP.M        374.75                         : bot_depth    - STOP DEPTH
STEP.M        0.25                           : increment    - STEP LENGTH
 NULL. -999.2500:NULL Value
~CURVE INFORMATION BLOCK
#MNEM UNIT       ERCB CURVE CODE    CURVE DESCRIPTION
#-----------   ------------------   ----------------------------------
DEPT.M        00 001 00 00         : DEPTH        - DEPTH
GR  .API      00 310 00 00         : GR           - GAMMA RAY
CALI.MM       00 280 01 00         : CAL          - CALIPER
NPHI.V/V      00 330 00 00         : PHIN         - NEUTRON POROSITY (SANDSTONE)
DPHI.V/V      00 890 00 00         : PHID         - DENSITY POROSITY (SANDSTONE)
ILD .OHMM     00 120 00 00         : RESD         - DEEP RESISTIVITY (DIL)
~PARAMETER INFORMATION
#MNEM.UNIT           DATA             DESCRIPTION OF MNEMONIC
#---------         -----------     ------------------------------
GL  .M        646.8                : gl           - GROUND LEVEL ELEVATION
EREF.M        650.2                : kb           - ELEVATION OF DEPTH REFERENCE
DATM.M        650.2                : datum        - DATUM ELEVATION
TDD .M        387.5                : tdd          - TOTAL DEPTH DRILLER
RUN .         0.000000             : Run          - RUN NUMBER
MUD .         GEL                  : Mud_type     - MUD TYPE
MATR.         SANDSTONE            : Logunit      - NEUTRON MATRIX
TMAX.C        41                   : BHT          - MAXIMUM RECORDED TEMPERATURE
BHTD.M        387.5                : BHTDEP       - MAXIMUM RECORDED TEMPERATURE
RMT .C        17                   : MDTP         - TEMPERATURE OF MUD
MUDD.KG/M     1120                 : MWT          - MUD DENSITY
NEUT.         1                    : NEUTRON      - NEUTRON TYPE
RESI.         0                    : RESIST       - RESISTIVITY TYPE
RM  .OHMM     5.88                 : RM           - RESISTIVITY OF MUD
RMC .OHMM     6.6                  : RMC          - RESISTIVITY OF MUD CAKE
RMF .OHMM     6.6                  : RMF          - RESISTIVITY OF MUD FILTRATE
SUFT.C        4                    : SUFT         - SURFACE TEMPERATURE
~A  DEPTH       GR      CAL     PHIN     PHID     RESD
# ...
  236.500  105.187  177.905    0.434    0.214    5.012
  236.750  103.942  177.905    0.449    0.224    5.012
  237.000  102.697  176.867    0.463    0.225    5.012
  237.250  105.187  176.867    0.449    0.218    4.917
  237.500  106.612  177.686    0.436    0.220    4.917
  237.750  104.752  177.686    0.453    0.225    4.917
  238.000  105.372  176.653    0.446    0.222    4.917
  238.250  104.752  176.653    0.421    0.224    5.109
  238.500  101.033  176.653    0.430    0.241    4.823
  238.750  100.413  175.620    0.455    0.249    4.917
  239.000   97.934  175.620    0.496    0.257    5.012
  239.250   92.975  176.653    0.496    0.261    5.109
  239.500   83.678  174.587    0.447    0.267    5.109
  239.750   80.579  172.521    0.437    0.267    5.109
  240.000   86.777  174.587    0.428    0.257    5.109
  240.250   91.116  174.587    0.422    0.251    5.109
  240.500   91.116  174.587    0.417    0.243    5.109
  240.750   91.116  174.587    0.415    0.242    5.109
  241.000   91.116  175.620    0.417    0.248    5.109
  241.250   91.116  176.653    0.438    0.253    5.208
  241.500   91.494  176.867    0.435    0.249    5.208
  241.750   89.004  176.867    0.450    0.245    5.208
  242.000   89.627  176.867    0.464    0.251    5.208
  242.250   93.361  176.867    0.468    0.263    5.208
  242.500   92.116  176.867    0.471    0.269    5.309
  242.750   90.249  176.867    0.476    0.265    5.012
  243.000   90.871  175.830    0.458    0.258    4.732
  243.250   89.004  175.830    0.454    0.260    4.382
  243.500   89.004  175.830    0.483    0.266    4.217
  243.750   90.871  175.830    0.495    0.266    4.058
  244.000   90.871  175.830    0.484    0.257    4.058
  244.250   89.627  174.793    0.472    0.249    4.137
  244.500   90.871  174.793    0.473    0.246    4.137
  244.750   94.606  174.793    0.475    0.244    4.137
  245.000   95.851  174.793    0.458    0.241    4.553
  245.250   87.759  174.793    0.438    0.239    5.109
  245.500   80.913  173.755    0.432    0.223    5.012
  245.750   75.934  171.680    0.447    0.195    5.517
  246.000   79.668  170.643    0.451    0.188    6.072
  246.250   82.780  169.606    0.451    0.205    6.190
  246.500   87.137  167.531    0.470    0.204    6.190
  246.750   90.249  166.494    0.476    0.209    6.072
  247.000   97.095  165.456    0.471    0.227    5.843
  247.250   99.585  163.382    0.476    0.241    5.732
  247.500   98.340  162.344    0.484    0.247    5.517
  247.750   93.983  163.382    0.478    0.243    5.412
  248.000   94.606  164.419    0.460    0.251    5.208
  248.250   91.494  165.456    0.471    0.262    5.208
  248.500   85.270  167.531    0.476    0.259    5.309
  248.750   86.515  168.568    0.475    0.253    5.309
  249.000   90.249  169.606    0.490    0.239    5.309
  249.250   94.606  170.643    0.491    0.234    5.208
  249.500   98.340  172.718    0.470    0.237    5.208
  249.750   95.851  173.755    0.463    0.238    5.208
  250.000   91.494  175.830    0.452    0.239    5.208
  250.250   90.871  175.830    0.447    0.238    5.208
  250.500   95.228  175.830    0.450    0.239    5.208
  250.750   96.473  175.830    0.447    0.247    5.208
  251.000   97.095  175.830    0.460    0.249    5.208
  251.250   95.851  175.830    0.484    0.246    5.109
  251.500   93.983  175.830    0.486    0.239    5.109
  251.750   95.851  175.830    0.481    0.242    5.109
  252.000   99.585  175.830    0.468    0.246    5.109
  252.250  100.830  175.830    0.457    0.246    5.109
  252.500   96.473  175.830    0.477    0.248    5.109
  252.750   91.494  175.830    0.480    0.261    5.012
  253.000   91.494  175.830    0.448    0.263    5.012
  253.250   93.983  175.830    0.453    0.264    5.012
  253.500   96.473  175.830    0.466    0.244    5.012
  253.750   93.983  175.830    0.473    0.233    5.012
  254.000   92.739  173.755    0.476    0.222    4.938
  254.250   90.871  172.718    0.480    0.194    4.938
  254.500   90.871  173.755    0.502    0.140    4.938
  254.750   93.983  171.680    0.516    0.185    5.034
  255.000  100.830  173.755    0.512    0.238    5.651
  255.250  108.299  175.830    0.500    0.256    5.132
  255.500  103.942  173.755    0.490    0.253    4.752
  255.750  100.830  173.755    0.495    0.239    4.316
  256.000  103.942  174.793    0.482    0.229    3.920
  256.250  105.809  175.830    0.507    0.224    3.905
  256.500  106.432  173.755    0.525    0.223    4.058
  256.750  105.809  173.755    0.526    0.228    4.058
  257.000  105.187  173.755    0.530    0.237    4.137
  257.250  105.809  173.755    0.534    0.235    4.058
  257.500  108.299  176.867    0.536    0.232    4.058
  257.750  107.676  174.793    0.542    0.229    4.058
  258.000  107.054  173.755    0.547    0.224    3.981
  258.250  108.299  175.830    0.535    0.220    3.996
  258.500  110.788  173.755    0.536    0.234    3.920
  258.750  108.921  173.755    0.533    0.243    3.920
  259.000  105.187  173.755    0.523    0.250    3.996
  259.250  100.207  173.755    0.511    0.254    4.074
  259.500   97.095  172.718    0.494    0.250    4.153
  259.750   97.095  172.718    0.491    0.244    4.153
  260.000  100.207  172.718    0.488    0.236    4.153
  260.250  100.207  173.755    0.508    0.226    4.234
  260.500  103.320  173.755    0.511    0.221    4.234
  260.750  106.432  173.755    0.526    0.224    4.316
  261.000  108.921  173.755    0.520    0.226    4.316
  261.250  107.676  174.793    0.500    0.226    4.400
  261.500  106.432  174.793    0.480    0.228    4.485
  261.750  105.809  174.793    0.476    0.239    4.573
  262.000  108.921  173.755    0.476    0.246    4.573
  262.250  107.676  172.718    0.474    0.246    4.661
  262.500  102.697  172.718    0.463    0.244    4.844
  262.750   94.606  173.755    0.453    0.241    4.661
  263.000   94.606  173.755    0.447    0.239    4.661
  263.250   96.473  173.755    0.437    0.237    4.752
  263.500  100.830  170.643    0.451    0.239    4.844
  263.750   95.851  174.793    0.478    0.244    5.034
  264.000   93.361  173.755    0.476    0.237    4.752
  264.250   90.871  173.755    0.448    0.227    4.752
  264.500   92.116  172.718    0.437    0.219    4.752
  264.750   94.606  172.718    0.438    0.212    4.661
  265.000  105.187  172.718    0.466    0.192    4.573
  265.250  104.564  173.755    0.481    0.163    4.400
  265.500  100.207  172.718    0.485    0.180    4.316
  265.750  102.697  171.680    0.482    0.220    4.316
  266.000  105.187  173.755    0.457    0.246    4.316
  266.250  103.942  170.643    0.458    0.251    4.400
  266.500  106.432  173.755    0.486    0.248    4.504
  266.750  108.299  171.680    0.495    0.248    4.592
  267.000  103.942  174.793    0.498    0.250    4.682
  267.250   95.851  173.755    0.485    0.250    4.773
  267.500   98.963  173.755    0.488    0.245    4.773
  267.750  103.942  173.755    0.490    0.245    4.418
  268.000  107.676  170.643    0.544    0.249    4.012
  268.250  112.656  174.793    0.536    0.254    3.573
  268.500  105.809  170.643    0.509    0.256    3.714
  268.750   96.473  173.755    0.461    0.256    3.996
  269.000   95.228  174.793    0.461    0.261    4.153
  269.250   95.851  174.793    0.451    0.270    4.400
  269.500   96.473  160.270    0.433    0.274    5.132
  269.750   95.851  174.793    0.426    0.271    5.132
  270.000   95.228  160.270    0.435    0.244    5.132
  270.250   90.871  177.905    0.445    0.233    5.034
  270.500   95.228  177.905    0.450    0.205    4.752
  270.750  106.432  177.905    0.478    0.169    4.504
  271.000  110.166  177.905    0.495    0.175    4.418
  271.250  112.656  177.905    0.481    0.208    4.090
  271.500  110.788  177.905    0.479    0.210    3.714
  271.750  112.656  177.905    0.500    0.210    3.372
  272.000  117.635  176.867    0.503    0.211    3.308
  272.250  123.859  178.942    0.471    0.210    3.122
  272.500  126.349  173.755    0.479    0.210    3.004
  272.750  123.237  179.979    0.494    0.211    3.122
