~VERSION INFORMATION
 VERS.                 2.0:   CWLS LOG ASCII STANDARD -VERSION 2.0
 WRAP.                  NO:   ONE LINE PER DEPTH STEP
~WELL INFORMATION BLOCK
#MNEM.UNIT           DATA                    DESCRIPTION OF MNEMONIC
#---------    -------------------            -------------------------------
# Generated from Intellog Unique Number	CN_94_101/WELL/5013
WELL.         11-06-098-06W4                 : Well_name    - WELL
LOC .         AA/11-06-098-06W4/0            : Location     - LOCATION
UWI .         AA/11-06-098-06W400            : Uwi          - UNIQUE WELL ID
ENTR.         TIM                            : Entered      - ENTERED BY
SRVC.         SCHLUMBERGER                   : Scn          - SERVICE COMPANY
DATE.         08/13/92                       : Date         - LOG DATE
STRT.M        0                              : top_depth    - START DEPTH
STOP.M        40                             : bot_depth    - STOP DEPTH
STEP.M        0.25                           : increment    - STEP LENGTH
 NULL. -999.2500:NULL Value
~CURVE INFORMATION BLOCK
#MNEM UNIT       ERCB CURVE CODE    CURVE DESCRIPTION
#-----------   ------------------   ----------------------------------
DEPT.M        00 001 00 00         : DEPTH        - DEPTH
GR  .API      00 310 00 00         : GR           - GAMMA RAY
DPHI.V/V      00 890 00 00         : PHID         - DENSITY POROSITY (SANDSTONE)
ILD .OHMM     00 120 00 00         : RESD         - DEEP RESISTIVITY (DIL)
~PARAMETER INFORMATION
#MNEM.UNIT           DATA             DESCRIPTION OF MNEMONIC
#---------         -----------     ------------------------------
GL  .M        339.4                : gl           - GROUND LEVEL ELEVATION
EREF.M        339.4                : kb           - ELEVATION OF DEPTH REFERENCE
DATM.M        339.4                : datum        - DATUM ELEVATION
TDD .M        45                   : tdd          - TOTAL DEPTH DRILLER
RUN .         ONE                  : Run          - RUN NUMBER
ENG .         BILL                 : Engineer     - RECORDING ENGINEER
WIT .         JIM                  : Witness      - WITNESSED BY
MUD .         GEL                  : Mud_type     - MUD TYPE
MATR.         SANDSTONE            : Logunit      - NEUTRON MATRIX
TMAX.C        10                   : BHT          - MAXIMUM RECORDED TEMPERATURE
BHTD.M        45                   : BHTDEP       - MAXIMUM RECORDED TEMPERATURE
RMT .C        10                   : MDTP         - TEMPERATURE OF MUD
MUDD.KG/M     1090                 : MWT          - MUD DENSITY
NEUT.         1                    : NEUTRON      - NEUTRON TYPE
RESI.         0                    : RESIST       - RESISTIVITY TYPE
RM  .OHMM     13.1                 : RM           - RESISTIVITY OF MUD
RMC .OHMM     13.1                 : RMC          - RESISTIVITY OF MUD CAKE
RMF .OHMM     13.1                 : RMF          - RESISTIVITY OF MUD FILTRATE
SUFT.C        4                    : SUFT         - SURFACE TEMPERATURE
~A  DEPTH       GR     PHID     RESD
    0.000   74.579   -0.019    0.000
    0.250   55.901   -0.072    0.000
    0.500   42.690   -0.342    0.000
    0.750   39.794   -0.358    0.000
    1.000   49.606   -0.343    0.000
    1.250   50.330   -0.303    0.000
    1.500   47.404   -0.336    0.000
    1.750   43.887   -0.256    0.000
    2.000   48.261   -0.064    0.000
    2.250   52.000    0.419    0.000
    2.500   35.745    0.449    9.702
    2.750   32.834    0.449    9.702
    3.000   28.712    0.429    9.234
    3.250   20.954    0.348    9.234
    3.500   24.116    0.290    9.234
    3.750   29.687    0.332    9.234
    4.000   38.287    0.397    9.234
    4.250   37.799    0.314    9.234
    4.500   24.574    0.229    9.234
    4.750   27.766    0.223    9.234
    5.000   26.643    0.253    8.788
    5.250   26.761    0.303    8.788
    5.500   28.697    0.295    8.788
    5.750   27.603    0.292    8.788
    6.000   22.284    0.307    8.788
    6.250   23.613    0.302    9.234
    6.500   26.140    0.299    9.234
    6.750   23.835    0.291    9.702
    7.000   16.713    0.271   10.194
    7.250   16.195    0.291   10.710
    7.500   15.708    0.330   11.253
    7.750   13.403    0.350   11.253
    8.000   12.915    0.360   11.823
    8.250   17.880    0.359   12.422
    8.500   20.436    0.367   12.422
    8.750   21.752    0.374   11.823
    9.000   23.687    0.364   11.253
    9.250   23.820    0.348   11.253
    9.500   20.318    0.365   11.253
    9.750   17.392    0.390   10.710
   10.000   17.496    0.405   10.710
   10.250   17.008    0.405   10.710
   10.500   20.170    0.397   10.710
   10.750   25.741    0.369   11.253
   11.000   29.495    0.346   10.710
   11.250   31.430    0.313   10.710
   11.500   34.593    0.288   11.253
   11.750   34.711    0.277   10.710
   12.000   36.661    0.292    8.364
   12.250   38.597    0.314    6.864
   12.500   41.745    0.324    5.918
   12.750   48.513    0.276    5.360
   13.000   51.675    0.178    5.360
   13.250   39.661    0.173    5.632
   13.500   39.779    0.185    6.217
   13.750   43.533    0.195    6.533
   14.000   32.745    0.220    5.918
   14.250   38.331    0.257    5.632
   14.500   29.347    0.249    5.360
   14.750   43.414    0.251    5.360
   15.000   40.489    0.226    5.632
   15.250   32.731    0.186    6.217
   15.500   34.681    0.180    6.217
   15.750   31.756    0.213    6.217
   16.000   33.691    0.250    6.533
   16.250   36.248    0.275    6.533
   16.500   35.154    0.294    6.217
   16.750   37.711    0.322    5.360
   17.000   32.361    0.349    5.102
   17.250   39.144    0.371    4.856
   17.500   36.233    0.371    4.856
   17.750   32.110    0.360    4.944
   18.000   27.396    0.362    4.886
   18.250   20.821    0.362    4.901
   18.500   17.924    0.354    4.985
   18.750   19.875    0.349    5.294
   19.000   23.613    0.344    5.233
   19.250   29.805    0.331    5.247
   19.500   37.179    0.281    7.961
   19.750   45.794    0.265   55.004
   20.000   50.153    0.240   83.502
   20.250   37.548    0.230  224.588
   20.500   39.484    0.234  308.390
   20.750   37.785    0.249  400.071
   21.000   28.209    0.261  607.146
   21.250   21.057    0.241  106.426
   21.500   23.599    0.223  113.033
   21.750   24.308    0.240  159.655
   22.000   23.215    0.250  187.339
   22.250   22.756    0.272  332.811
   22.500   25.298    0.257  185.753
   22.750   32.081    0.261  227.510
   23.000   33.425    0.249  404.176
   23.250   28.682    0.253  604.877
   23.500   25.150    0.258  606.526
   23.750   21.027    0.273 1207.590
   24.000   23.584    0.285 1886.400
   24.250   21.264    0.290 2344.520
   24.500   21.397    0.272 3128.640
   24.750   21.530    0.254 3322.830
   25.000   22.830    0.264 2168.780
   25.250   24.796    0.258  592.050
   25.500   27.928    0.243  736.081
   25.750   31.076    0.225  954.262
   26.000   35.450    0.233  984.604
   26.250   46.459    0.267  680.676
   26.500   50.818    0.290 1209.230
   26.750   37.001    0.252  370.084
   27.000   41.361    0.236  225.047
   27.250   32.391    0.259  296.052
   27.500   31.903    0.283  598.124
   27.750   32.036    0.283  712.185
   28.000   36.395    0.270  168.472
   28.250   33.484    0.270  381.721
   28.500   27.529    0.209  649.455
   28.750   21.604    0.207  689.533
   29.000   25.963    0.214  276.954
   29.250   30.307    0.229  233.947
   29.500   21.973    0.241  251.959
   29.750   21.471    0.233 2912.900
   30.000   16.122    0.208 2495.980
   30.250   26.539    0.207 1393.090
   30.500   26.672    0.199 1094.870
   30.750   22.535    0.222 1461.550
   31.000   22.668    0.261 3455.420
   31.250   24.604    0.241 1135.850
   31.500   24.736    0.221 1075.670
   31.750   26.081    0.205 2693.640
   32.000   26.776    0.208 3862.060
   32.250   29.317    0.272 3871.270
   32.500   25.800    0.275 3001.430
   32.750   30.765    0.277 1451.630
   33.000   29.687    0.284 2140.920
   33.250   38.272    0.291 4264.010
   33.500   35.361    0.276 4155.160
   33.750   39.750    0.263 4167.910
   34.000   35.612    0.265 4060.130
   34.250   35.730    0.272 3900.360
   34.500   31.637    0.270 4142.460
   34.750   28.091    0.252 4093.420
   35.000   26.997    0.269 4225.020
   35.250   33.189    0.274 4175.000
   35.500   30.869    0.271 4126.980
   35.750   23.111    0.256 3908.330
   36.000   20.791    0.220 3447.200
   36.250   37.282    0.187 2788.760
   36.500   53.773    0.157 1407.860
   36.750   71.476    0.177 1030.530
   37.000   86.134    0.259  702.319
   37.250   85.041    0.304   96.525
   37.500   71.225    0.216   31.279
   37.750   52.547    0.110   46.812
   38.000   54.482    0.068   60.708
   38.250   66.732    0.080   57.491
   38.500   53.507    0.092   80.107
   38.750   73.027    0.034   62.086
   39.000   74.372   -0.006   59.643
   39.250   70.840   -0.017   94.511
   39.500   66.126   -0.009   96.165
   39.750   70.471    0.000   77.797
   40.000   65.151    0.008   75.862
