~VERSION INFORMATION
 VERS.                 2.0:   CWLS LOG ASCII STANDARD -VERSION 2.0
 WRAP.                  NO:   ONE LINE PER DEPTH STEP
~WELL INFORMATION BLOCK
#MNEM.UNIT           DATA                    DESCRIPTION OF MNEMONIC
#---------    -------------------            -------------------------------
# Generated from Intellog Unique Number	CN_91_93/WELL/2905
WELL.         15-34-092-10W4                 : Well_name    - WELL
LOC .         AB/15-34-092-10W4/0            : Location     - LOCATION
UWI .         AB/15-34-092-10W400            : Uwi          - UNIQUE WELL ID
ENTR.         JOETTE                         : Entered      - ENTERED BY
SRVC.         SCHLUMBERGER                   : Scn          - SERVICE COMPANY
DATE.         03/31/92                       : Date         - LOG DATE
STRT.M        2                              : top_depth    - START DEPTH
STOP.M        34                             : bot_depth    - STOP DEPTH
STEP.M        0.25                           : increment    - STEP LENGTH
 NULL. -999.2500:NULL Value
~CURVE INFORMATION BLOCK
#MNEM UNIT       ERCB CURVE CODE    CURVE DESCRIPTION
#-----------   ------------------   ----------------------------------
DEPT.M        00 001 00 00         : DEPTH        - DEPTH
GR  .API      00 310 00 00         : GR           - GAMMA RAY
NPHI.V/V      00 330 00 00         : PHIN         - NEUTRON POROSITY (SANDSTONE)
DPHI.V/V      00 890 00 00         : PHID         - DENSITY POROSITY (SANDSTONE)
ILD .OHMM     00 120 00 00         : RESD         - DEEP RESISTIVITY (DIL)
~PARAMETER INFORMATION
#MNEM.UNIT           DATA             DESCRIPTION OF MNEMONIC
#---------         -----------     ------------------------------
GL  .M        270.1                : gl           - GROUND LEVEL ELEVATION
EREF.M        270.1                : kb           - ELEVATION OF DEPTH REFERENCE
DATM.M        270.1                : datum        - DATUM ELEVATION
TDD .M        36.1                 : tdd          - TOTAL DEPTH DRILLER
RUN .         ONE                  : Run          - RUN NUMBER
ENG .         BILL                 : Engineer     - RECORDING ENGINEER
WIT .         JIM                  : Witness      - WITNESSED BY
MUD .         GEL                  : Mud_type     - MUD TYPE
MATR.         SANDSTONE            : Logunit      - NEUTRON MATRIX
TMAX.C        6                    : BHT          - MAXIMUM RECORDED TEMPERATURE
BHTD.M        36.1                 : BHTDEP       - MAXIMUM RECORDED TEMPERATURE
RMT .C        13.5                 : MDTP         - TEMPERATURE OF MUD
MUDD.KG/M     1060                 : MWT          - MUD DENSITY
NEUT.         1                    : NEUTRON      - NEUTRON TYPE
RESI.         0                    : RESIST       - RESISTIVITY TYPE
RM  .OHMM     17                   : RM           - RESISTIVITY OF MUD
RMC .OHMM     17                   : RMC          - RESISTIVITY OF MUD CAKE
RMF .OHMM     17                   : RMF          - RESISTIVITY OF MUD FILTRATE
SUFT.C        4                    : SUFT         - SURFACE TEMPERATURE
~A  DEPTH       GR     PHIN     PHID     RESD
    2.000   26.887    0.485    0.167    0.000
    2.250   23.387    0.498    0.151    0.000
    2.500   24.564    0.495    0.138    0.000
    2.750   19.895    0.518    0.111    0.000
    3.000   26.040    0.549    0.110    0.000
    3.250   26.048    0.540    0.108    0.000
    3.500   19.041    0.558    0.105    0.000
    3.750   24.602    0.522    0.101    0.000
    4.000   20.809    0.570    0.106    0.000
    4.250   22.570    0.524    0.099    0.000
    4.500   25.793    0.518    0.101    0.000
    4.750   25.507    0.519    0.104    0.000
    5.000   22.593    0.517    0.104    0.000
    5.250   19.970    0.499    0.103    0.000
    5.500   20.562    0.509    0.105    0.000
    5.750   16.478    0.480    0.105    0.000
    6.000   23.499    0.553    0.104    0.000
    6.250   26.138    0.516    0.102    0.000
    6.500   27.314    0.541    0.102    0.000
    6.750   32.581    0.528    0.111    0.000
    7.000   37.849    0.582    0.173    0.000
    7.250   22.660    0.545    0.347    0.000
    7.500   20.915    0.406    0.338    0.000
    7.750   22.091    0.448    0.326    0.000
    8.000   20.637    0.327    0.283 1935.960
    8.250   25.612    0.311    0.259  594.919
    8.500   24.451    0.309    0.259  818.286
    8.750   22.413    0.327    0.268  659.888
    9.000   21.544    0.349    0.289  933.514
    9.250   13.368    0.369    0.298 1383.920
    9.500   17.174    0.363    0.298  618.606
    9.750   20.104    0.356    0.293  789.413
   10.000   20.112    0.374    0.294  458.678
   10.250   16.613    0.397    0.295  114.707
   10.500   18.666    0.384    0.306  533.162
   10.750   17.798    0.378    0.315  805.352
   11.000   19.265    0.378    0.302 1467.130
   11.250   21.611    0.380    0.299  805.870
   11.500   26.879    0.397    0.295  442.637
   11.750   28.347    0.360    0.285  720.637
   12.000   26.601    0.368    0.285  319.118
   12.250   25.732    0.357    0.282  603.541
   12.500   36.552    0.376    0.259  681.913
   12.750   41.236    0.407    0.263   67.465
   13.000   30.430    0.408    0.278   29.047
   13.250   19.624    0.398    0.283  110.906
   13.500   22.262    0.395    0.283  593.256
   13.750   25.485    0.322    0.269 1153.980
   14.000   41.273    0.378    0.248  115.247
   14.250   32.221    0.424    0.234   92.942
   14.500   26.383    0.402    0.237  139.081
   14.750   25.806    0.400    0.264  174.195
   15.000   18.508    0.346    0.286  723.588
   15.250   16.178    0.376    0.285  697.227
   15.500   22.906    0.369    0.289  516.790
   15.750   23.791    0.392    0.291   80.156
   16.000   20.584    0.394    0.288  672.193
   16.250   23.221    0.425    0.292  512.450
   16.500   25.566    0.441    0.298  251.555
   16.750   23.528    0.423    0.301 1044.930
   17.000   29.089    0.386    0.272  109.360
   17.250   27.050    0.417    0.259   12.807
   17.500   16.829    0.430    0.275   95.982
   17.750   14.206    0.391    0.299  523.133
   18.000   19.183    0.385    0.302  421.882
   18.250   20.066    0.364    0.296  363.283
   18.500   21.535    0.361    0.296  399.071
   18.750   18.913    0.363    0.295  334.118
   19.000   20.965    0.388    0.302  217.222
   19.250   19.219    0.408    0.303   50.401
   19.500   20.688    0.402    0.303  902.607
   19.750   20.989    0.370    0.308  675.359
   20.000   15.735    0.418    0.327  920.268
   20.250   12.527    0.428    0.323  929.227
   20.500    8.737    0.405    0.314  912.246
   20.750   13.419    0.390    0.309  912.569
   21.000   23.070    0.411    0.300  657.682
   21.250   19.279    0.382    0.296  823.703
   21.500   21.624    0.395    0.288  921.987
   21.750   19.294    0.389    0.272  930.963
   22.000   23.685    0.372    0.217  420.039
   22.250   38.013    0.426    0.204   63.344
   22.500   25.453    0.410    0.232   11.961
   22.750   28.091    0.388    0.244  187.871
   23.000   30.144    0.414    0.256  117.654
   23.250   28.398    0.458    0.273  242.087
   23.500   27.236    0.388    0.253  186.299
   23.750   28.122    0.415    0.242  119.990
   24.000   30.467    0.399    0.239  240.054
   24.250   36.027    0.365    0.227  147.543
   24.500   51.815    0.402    0.212   89.835
   24.750   55.914    0.414    0.213   23.324
   25.000   45.985    0.479    0.229    6.466
   25.250   21.152    0.398    0.244   34.914
   25.500   22.329    0.368    0.227  312.632
   25.750   38.119    0.388    0.216   95.179
   26.000   35.787    0.395    0.214   30.083
   26.250   34.333    0.351    0.208   12.360
   26.500   44.861    0.389    0.211   41.005
   26.750   55.097    0.347    0.210   10.746
   27.000   61.826    0.362    0.197   12.844
   27.250   63.879    0.427    0.212   12.728
   27.500   41.676    0.340    0.230   13.982
   27.750   50.160    0.346    0.221   30.149
   28.000   64.486    0.363    0.208   11.174
   28.250   63.909    0.418    0.225    3.736
   28.500   62.455    0.371    0.237    5.696
   28.750   61.001    0.394    0.271    5.489
   29.000   37.630    0.357    0.259    4.907
   29.250   32.669    0.354    0.231    5.492
   29.500   36.475    0.378    0.211   57.666
   29.750   39.990    0.377    0.216   56.614
   30.000   50.518    0.384    0.226   15.991
   30.250   35.329    0.315    0.202    3.962
   30.500   50.241    0.271    0.074   15.413
   30.750   47.326    0.256   -0.017    5.010
   31.000   45.581    0.229   -0.001    5.107
   31.250   40.035    0.232    0.000    5.990
   31.500   50.271    0.246   -0.017    5.936
   31.750   51.448    0.249   -0.027    5.307
   32.000   52.332    0.241   -0.019    5.308
   32.250   56.430    0.226   -0.016    5.513
   32.500   58.483    0.227   -0.002    5.779
   32.750   55.277    0.222    0.010    5.946
   33.000   60.544    0.236    0.011    6.174
   33.250   60.259    0.216    0.020    6.412
   33.500   54.422    0.214    0.021    5.841
   33.750   52.092    0.212   -0.018    5.628
   34.000   62.620    0.203   -0.040    5.223
